{"version": 0.6, "generator": "Overpass API 0.7.62.11 87bfad18", "osm3s": {"timestamp_osm_base": "2026-06-24T22:26:00Z", "copyright": "The data included in this document is from www.openstreetmap.org. The data is made available under ODbL."}, "elements": [{"type": "node", "id": 2332679004, "lat": 24.2443695, "lon": 90.7978091, "tags": {"amenity": "hospital", "name": "Katiyadi Upazilla Health Complex"}}, {"type": "node", "id": 2332679007, "lat": 24.3258926, "lon": 90.9336303, "tags": {"amenity": "hospital", "name": "Nikli Upazilla Health Complex"}}, {"type": "node", "id": 3738590832, "lat": 24.2420268, "lon": 90.9036422, "tags": {"name": "chworastarmor", "shop": "convenience"}}, {"type": "node", "id": 4302282289, "lat": 24.0369217, "lon": 91.010643, "tags": {"addr:street": "Dhaka-Sylhet Highway", "amenity": "restaurant", "name": "\u0989\u099c\u09be\u09a8-\u09ad\u09be\u099f\u09bf", "name:bn": "\u0989\u099c\u09be\u09a8-\u09ad\u09be\u099f\u09bf", "name:en": "Ujan-Vati", "opening_hours": "24/7"}}, {"type": "node", "id": 4378774798, "lat": 24.0389403, "lon": 91.0098268}, {"type": "node", "id": 4378774803, "lat": 24.0390083, "lon": 91.0097698}, {"type": "node", "id": 4378774805, "lat": 24.0390571, "lon": 91.0099939}, {"type": "node", "id": 4378774811, "lat": 24.0391251, "lon": 91.0099369}, {"type": "node", "id": 4378774974, "lat": 24.0409093, "lon": 91.0127339}, {"type": "node", "id": 4378774977, "lat": 24.0409658, "lon": 91.0126933}, {"type": "node", "id": 4378774987, "lat": 24.0410779, "lon": 91.0128803}, {"type": "node", "id": 4378775090, "lat": 24.0411241, "lon": 91.0125713}, {"type": "node", "id": 4378775091, "lat": 24.041146, "lon": 91.0129938}, {"type": "node", "id": 4378775093, "lat": 24.0411895, "lon": 91.0132018}, {"type": "node", "id": 4378775094, "lat": 24.0411976, "lon": 91.0125185}, {"type": "node", "id": 4378775097, "lat": 24.0412396, "lon": 91.0127641}, {"type": "node", "id": 4378775098, "lat": 24.0412462, "lon": 91.0131611}, {"type": "node", "id": 4378775100, "lat": 24.0413038, "lon": 91.0128804}, {"type": "node", "id": 4378775103, "lat": 24.0413987, "lon": 91.0130387}, {"type": "node", "id": 4378775105, "lat": 24.0414759, "lon": 91.0129832}, {"type": "node", "id": 4551592291, "lat": 24.0551636, "lon": 90.9844249, "tags": {"amenity": "bus_station", "name": "\u09ad\u09c8\u09b0\u09ac", "name:en": "Bhairab"}}, {"type": "node", "id": 4682641902, "lat": 24.0410539, "lon": 91.0123001, "tags": {"amenity": "hospital", "name:en": "APSCL medical"}}, {"type": "node", "id": 4682669689, "lat": 24.0418276, "lon": 91.0137977, "tags": {"amenity": "atm", "opening_hours": "24/7", "operator": "\u098f\u0995\u09cd\u09b8\u09bf\u09ae \u098f\u099f\u09bf\u098f\u09ae"}}, {"type": "node", "id": 4761671938, "lat": 24.2120387, "lon": 91.0753685}, {"type": "node", "id": 4761671939, "lat": 24.2120496, "lon": 91.0780596}, {"type": "node", "id": 4761671940, "lat": 24.2103441, "lon": 91.0781076}, {"type": "node", "id": 4761671941, "lat": 24.2107377, "lon": 91.0763574}, {"type": "node", "id": 4761892305, "lat": 24.1621033, "lon": 91.0462743, "tags": {"amenity": "marketplace", "name": "Pakshimul"}}, {"type": "node", "id": 4761892310, "lat": 24.1624746, "lon": 91.0419}, {"type": "node", "id": 4761892311, "lat": 24.1623906, "lon": 91.0427211}, {"type": "node", "id": 4761892312, "lat": 24.1615866, "lon": 91.0425724}, {"type": "node", "id": 4761892313, "lat": 24.1616512, "lon": 91.0417655}, {"type": "node", "id": 4761892341, "lat": 24.1630777, "lon": 91.0427797}, {"type": "node", "id": 4761892342, "lat": 24.1629447, "lon": 91.0431295}, {"type": "node", "id": 4761892343, "lat": 24.161349, "lon": 91.0433568}, {"type": "node", "id": 4761892344, "lat": 24.1602586, "lon": 91.0432519}, {"type": "node", "id": 4761892345, "lat": 24.1604661, "lon": 91.042325}, {"type": "node", "id": 4773448907, "lat": 24.2051807, "lon": 91.1383786}, {"type": "node", "id": 4773448908, "lat": 24.2043512, "lon": 91.1381572}, {"type": "node", "id": 4773448909, "lat": 24.204005, "lon": 91.1400394}, {"type": "node", "id": 4773448910, "lat": 24.2051447, "lon": 91.1389717}, {"type": "node", "id": 4773448912, "lat": 24.2044863, "lon": 91.1392446, "tags": {"addr:street": "Bhalakut Rd", "amenity": "marketplace", "name": "Bhalakut Market"}}, {"type": "node", "id": 4773448954, "lat": 24.2211383, "lon": 91.1249355}, {"type": "node", "id": 4773448955, "lat": 24.2211915, "lon": 91.1251745}, {"type": "node", "id": 4773448956, "lat": 24.220503, "lon": 91.1256642}, {"type": "node", "id": 4773448957, "lat": 24.2203568, "lon": 91.1248626}, {"type": "node", "id": 4773448958, "lat": 24.2207342, "lon": 91.1251978, "tags": {"amenity": "marketplace", "name": "Kandipara Bazar"}}, {"type": "node", "id": 4773449139, "lat": 24.2095665, "lon": 91.0869605}, {"type": "node", "id": 4773449140, "lat": 24.2093683, "lon": 91.088449}, {"type": "node", "id": 4773449141, "lat": 24.2088453, "lon": 91.0882885}, {"type": "node", "id": 4773449142, "lat": 24.2091913, "lon": 91.0869494}, {"type": "node", "id": 4773449144, "lat": 24.2093737, "lon": 91.0872797, "tags": {"amenity": "marketplace", "name": "Chowk Bazar"}}, {"type": "node", "id": 4773449180, "lat": 24.211966, "lon": 91.0754238}, {"type": "node", "id": 4773449233, "lat": 24.2437399, "lon": 91.1459844, "tags": {"amenity": "marketplace", "name": "Goalnagar Bazar"}}, {"type": "node", "id": 5174122337, "lat": 24.0437211, "lon": 91.065796, "tags": {"addr:city": "Bogair Ashuganj Upazila", "amenity": "restaurant", "name": "Surma Inn Ltd. \u09b8\u09c1\u09b0\u09ae\u09be \u0987\u09a8 \u09b2\u09bf\u0983"}}, {"type": "node", "id": 5174123250, "lat": 24.0441786, "lon": 91.0619637, "tags": {"amenity": "bus_station", "name": "Bertala Bazar Bus Stop"}}, {"type": "node", "id": 5174124757, "lat": 24.0403283, "lon": 91.0352481, "tags": {"addr:city": "Dhaka - Sylhet Hwy", "name": "Sagar Food Products \u09b8\u09be\u0997\u09b0 \u0996\u09be\u09a6\u09cd\u09af \u09aa\u09a3\u09cd\u09af", "shop": "bakery"}}, {"type": "node", "id": 5174127111, "lat": 24.0424465, "lon": 91.047557, "tags": {"amenity": "bus_station", "name": "Kamaura Bus Stop"}}, {"type": "node", "id": 5174127464, "lat": 24.0414406, "lon": 91.0494956, "tags": {"addr:city": "Dhaka - Sylhet Hwy", "amenity": "school", "name": "Kamaura Shahid Smritee High School"}}, {"type": "node", "id": 5174130555, "lat": 24.03687, "lon": 91.0140242, "tags": {"addr:city": "Dhaka - Sylhet Hwy", "amenity": "restaurant", "name": "Hotel Razmoni"}}, {"type": "node", "id": 5174131214, "lat": 24.0364734, "lon": 91.0116618, "tags": {"addr:city": "Dhaka - Sylhet Hwy", "name": "Chile Cafe \u099a\u09bf\u09b2\u09bf \u0995\u09cd\u09af\u09be\u09ab\u09c7", "shop": "tea"}}, {"type": "node", "id": 5174131726, "lat": 24.0367637, "lon": 91.0097791, "tags": {"addr:city": "Dhaka - Sylhet Hwy", "amenity": "bank", "atm": "yes", "name": "\u09b8\u09bf\u099f\u09bf \u09ac\u09cd\u09af\u09be\u0982\u0995 \u098f\u099f\u09bf\u098f\u09ae", "name:bn": "\u09b8\u09bf\u099f\u09bf \u09ac\u09cd\u09af\u09be\u0982\u0995 \u098f\u099f\u09bf\u098f\u09ae", "name:en": "City Bank ATM"}}, {"type": "node", "id": 5174131897, "lat": 24.0374262, "lon": 91.0123757, "tags": {"addr:city": "Dhaka - Sylhet Hwy", "amenity": "police", "name": "\u0986\u09b6\u09c1\u0997\u099e\u09cd\u099c \u09a5\u09be\u09a8\u09be", "name:en": "Ashuganj Police Station \u0986\u09b6\u09c1\u0997\u099e\u09cd\u099c \u09a5\u09be\u09a8\u09be"}}, {"type": "node", "id": 5174137039, "lat": 24.0384164, "lon": 91.002794, "tags": {"amenity": "bus_station", "name": "\u0986\u09b6\u09c1\u0997\u099e\u09cd\u099c - \u09a2\u09be\u0995\u09be \u09ac\u09be\u09b8 \u09b8\u09cd\u099f\u09aa", "name:en": "Ashuganj - Dhaka BUS stop"}}, {"type": "node", "id": 5174137365, "lat": 24.0384604, "lon": 91.0019206, "tags": {"amenity": "parking", "operator": "\u0986\u09b6\u09c1\u0997\u099e\u09cd\u099c \u09b8\u09cd\u099f\u09c7\u09b6\u09a8 \u0995\u09be\u09b0 \u09aa\u09be\u09b0\u09cd\u0995\u09bf\u0982"}}, {"type": "node", "id": 5174150700, "lat": 24.0389859, "lon": 91.0029607, "tags": {"addr:city": "Old Ferry Terminal Rd, Ashuganj", "amenity": "bank", "atm": "yes", "name": "\u099f\u09cd\u09b0\u09be\u09b8\u09cd\u099f \u09ac\u09cd\u09af\u09be\u0982\u0995 \u09b2\u09bf\u09ae\u09bf\u099f\u09c7\u09a1 \u098f\u099f\u09bf\u098f\u09ae", "name:en": "Trust Bank Limited ATM"}}, {"type": "node", "id": 5174152426, "lat": 24.0390215, "lon": 91.0029359, "tags": {"addr:city": "Old Ferry Terminal Rd, Ashuganj", "amenity": "bank", "atm": "yes", "name": "\u09a1\u09bf\u09ac\u09bf\u09ac\u09bf\u098f\u09b2 \u098f\u099f\u09bf\u098f\u09ae", "name:en": "DBBL ATM"}}, {"type": "node", "id": 5174152484, "lat": 24.0390618, "lon": 91.0025639}, {"type": "node", "id": 5174152485, "lat": 24.0389754, "lon": 91.0027829}, {"type": "node", "id": 5174152486, "lat": 24.0391543, "lon": 91.0028676}, {"type": "node", "id": 5174152487, "lat": 24.0392192, "lon": 91.002703}, {"type": "node", "id": 5174152488, "lat": 24.0391844, "lon": 91.0026865}, {"type": "node", "id": 5174152489, "lat": 24.0392058, "lon": 91.0026321}, {"type": "node", "id": 5174152597, "lat": 24.0390258, "lon": 91.0028584, "tags": {"addr:city": "Old Ferry Terminal Rd, Ashuganj", "amenity": "bank", "atm": "yes", "name": "\u09a1\u09be\u099a-\u09ac\u09be\u0982\u09b2\u09be \u09ac\u09cd\u09af\u09be\u0982\u0995 \u09b2\u09bf\u09ae\u09bf\u099f\u09c7\u09a1 \u098f\u099f\u09bf\u098f\u09ae", "name:en": "Dutch Bangla Bank Limited ATM"}}, {"type": "node", "id": 5174152775, "lat": 24.0394313, "lon": 91.0022058, "tags": {"addr:city": "Station Road, Ashuganj", "amenity": "restaurant", "name": "\u0986\u0987\u09af\u09bc\u09c1\u09ac \u0986\u09b2\u09c0 \u099a\u099f\u09aa\u099f\u09bf", "name:en": "Ayubali Chotpiti"}}, {"type": "node", "id": 5174152951, "lat": 24.0392364, "lon": 91.0026775, "tags": {"addr:city": "\u09b6\u09b0\u09c0\u09df\u09a4 \u09a8\u0997\u09b0 \u09b0\u09cb\u09a1, Ashuganj", "amenity": "bank", "name": "\u09a1\u09be\u099a-\u09ac\u09be\u0982\u09b2\u09be \u09ac\u09cd\u09af\u09be\u0982\u0995 \u09b2\u09bf\u09ae\u09bf\u099f\u09c7\u09a1", "name:bn": "\u09a1\u09be\u099a-\u09ac\u09be\u0982\u09b2\u09be \u09ac\u09cd\u09af\u09be\u0982\u0995 \u09b2\u09bf\u09ae\u09bf\u099f\u09c7\u09a1", "name:en": "Dutch-Bangla Bank Limited"}}, {"type": "node", "id": 5174155019, "lat": 24.0393726, "lon": 91.0023735, "tags": {"addr:city": "Station Road, Ashuganj", "name": "\u09b8\u0995\u09be\u09b2 \u09b8\u09a8\u09cd\u09a7\u09be \u09b6\u09aa\u09bf\u0982 \u09ae\u09b2", "name:en": "Sokal Sondha Shopping Mall", "shop": "mall"}}, {"type": "node", "id": 5174155796, "lat": 24.0478179, "lon": 90.9917749, "tags": {"addr:city": "Dhaka - Sylhet Hwy", "amenity": "cafe", "name": "\u0995\u09cd\u09af\u09be\u09ab\u09c7 \u0986\u09b0\u09cd\u09b6\u09bf", "name:bn": "\u0995\u09cd\u09af\u09be\u09ab\u09c7 \u0986\u09b0\u09cd\u09b6\u09bf", "name:en": "Caf\u00e9 Aarshee"}}, {"type": "node", "id": 5174239138, "lat": 24.050215, "lon": 90.9909256, "tags": {"addr:city": "Dhaka-sylhet hwy", "amenity": "school", "name": "\u09ac\u09be\u0982\u09b2\u09be\u09a6\u09c7\u09b6 \u09b0\u09c7\u09b2\u0993\u09df\u09c7 \u0989\u099a\u09cd\u099a \u09ac\u09bf\u09a6\u09cd\u09af\u09be\u09b2\u09df", "name:bn": "\u09ac\u09be\u0982\u09b2\u09be\u09a6\u09c7\u09b6 \u09b0\u09c7\u09b2\u0993\u09df\u09c7 \u0989\u099a\u09cd\u099a \u09ac\u09bf\u09a6\u09cd\u09af\u09be\u09b2\u09df", "name:en": "Bangladesh Railway High School"}}, {"type": "node", "id": 5174245018, "lat": 24.0533321, "lon": 90.9873511, "tags": {"addr:city": "Dhaka - Sylhet Hwy", "name": "\u099f\u09cd\u09b0\u09c7\u09a8\u09a1\u09bf \u099f\u09c7\u0995\u09cd\u09b8", "name:bn": "\u099f\u09cd\u09b0\u09c7\u09a8\u09a1\u09bf \u099f\u09c7\u0995\u09cd\u09b8", "name:en": "Trendy Tex", "shop": "mall"}}, {"type": "node", "id": 5174249356, "lat": 24.0540277, "lon": 90.9871467, "tags": {"amenity": "bus_station", "name": "\u0995\u09be\u09ae\u09be\u09b2\u09aa\u09c1\u09b0 \u09ac\u09be\u09b8 \u09b8\u09cd\u099f\u09aa", "name:en": "Kamalpur Bus Stop"}}, {"type": "node", "id": 5174249523, "lat": 24.0536344, "lon": 90.9867243, "tags": {"addr:city": "Dhaka - Sylhet Hwy", "amenity": "cafe", "name": "\u09a8\u09ac\u09a7\u09be\u09b0\u09be \u09ab\u09c1\u09b8\u0995\u09be \u09b9\u09be\u0989\u099c"}}, {"type": "node", "id": 5174258005, "lat": 24.0545749, "lon": 90.9855878}, {"type": "node", "id": 5174258006, "lat": 24.0543433, "lon": 90.9844708}, {"type": "node", "id": 5174258007, "lat": 24.0547525, "lon": 90.9843991}, {"type": "node", "id": 5174258008, "lat": 24.054815, "lon": 90.9848262}, {"type": "node", "id": 5174258009, "lat": 24.0546198, "lon": 90.9848711}, {"type": "node", "id": 5174258445, "lat": 24.0552429, "lon": 90.9845722, "tags": {"addr:city": "Dhaka-Sylhet Highway", "amenity": "fuel", "name": "\u09a8\u09be\u09ad\u09be\u09a8\u09be \u09b8\u09bf \u098f\u09a8 \u099c\u09bf", "name:bn": "\u09a8\u09be\u09ad\u09be\u09a8\u09be \u09b8\u09bf \u098f\u09a8 \u099c\u09bf", "name:en": "Navana CNG"}}, {"type": "node", "id": 5174259954, "lat": 24.0552857, "lon": 90.9838929, "tags": {"amenity": "bus_station", "name": "\u09b8\u09bf\u09b2\u09c7\u099f \u09ac\u09be\u09b8 \u09b8\u09cd\u099f\u09c7\u09b6\u09a8", "name:en": "Sylhet Bus Station"}}, {"type": "node", "id": 5174290592, "lat": 24.055382, "lon": 90.9831264, "tags": {"addr:city": "Dhaka-Sylhet Highway", "name": "\u09a6\u09c2\u09b0\u09cd\u099c\u09df \u099f\u09c7\u09b2\u09bf\u0995\u09ae", "name:bn": "\u09a6\u09c2\u09b0\u09cd\u099c\u09df \u099f\u09c7\u09b2\u09bf\u0995\u09ae", "name:en": "Durjoy telecom", "shop": "electronics"}}, {"type": "node", "id": 5174291216, "lat": 24.0553468, "lon": 90.9834818, "tags": {"addr:city": "Dhaka-Sylhet Highway", "name": "\u09a6\u09c2\u09b0\u09cd\u099c\u09df \u09ed\u09e7 \u09b6\u09aa\u09bf\u0982 \u09ae\u09b2", "name:bn": "\u09a6\u09c2\u09b0\u09cd\u099c\u09df \u09ed\u09e7 \u09b6\u09aa\u09bf\u0982 \u09ae\u09b2", "name:en": "Durjoy 71 shopping mall", "shop": "mall"}}, {"type": "node", "id": 5174295025, "lat": 24.0547424, "lon": 90.9833141, "tags": {"addr:city": "Dhaka-Sylhet Highway", "name": "\u0986\u09b2 \u099c\u09be\u09ac\u09c7\u09b0 \u0995\u09ae\u09cd\u09aa\u09bf\u0989\u099f\u09be\u09b0'\u09b8", "name:bn": "\u0986\u09b2 \u099c\u09be\u09ac\u09c7\u09b0 \u0995\u09ae\u09cd\u09aa\u09bf\u0989\u099f\u09be\u09b0'\u09b8", "name:en": "Al Zaber Computer's", "shop": "computer"}}, {"type": "node", "id": 5174298638, "lat": 24.0550565, "lon": 90.9828974, "tags": {"addr:city": "Dhaka-Sylhet Highway", "amenity": "bank", "atm": "yes", "name": "\u09a1\u09be\u099a-\u09ac\u09be\u0982\u09b2\u09be \u09ac\u09cd\u09af\u09be\u0982\u0995 \u09b2\u09bf\u09ae\u09bf\u099f\u09c7\u09a1 \u098f\u099f\u09bf\u098f\u09ae", "name:en": "Dutch-Bangla Bank Limited ATM"}}, {"type": "node", "id": 5174298946, "lat": 24.0555123, "lon": 90.9830682, "tags": {"addr:city": "Dhaka-Sylhet Highway", "name": "\u09aa\u09be\u09b6\u09be \u099f\u09c7\u09b2\u09bf\u0995\u09ae", "name:bn": "\u09aa\u09be\u09b6\u09be \u099f\u09c7\u09b2\u09bf\u0995\u09ae", "name:en": "parsha telecom", "shop": "mobile_phone"}}, {"type": "node", "id": 5174301421, "lat": 24.0553331, "lon": 90.982916, "tags": {"amenity": "bus_station", "name": "\u09ad\u09c8\u09b0\u09ac \u09ac\u09be\u09b8 \u09b8\u09cd\u099f\u09c7\u09b6\u09a8", "name:en": "Bhairab Bus Station"}}, {"type": "node", "id": 5174303087, "lat": 24.054822, "lon": 90.9830035, "tags": {"addr:city": "Dhaka-Sylhet Highway", "amenity": "pharmacy", "healthcare": "pharmacy", "name": "\u0987\u09b8\u09b2\u09be\u09ae \u09ab\u09be\u09b0\u09cd\u09ae\u09be\u09b8\u09bf \u0993 \u099f\u09c7\u09b2\u09bf\u0995\u09ae", "name:en": "Islam Farmacy And Telicom"}}, {"type": "node", "id": 5174306117, "lat": 24.0544934, "lon": 90.9830986, "tags": {"addr:city": "Dhaka-Sylhet Highway", "amenity": "bank", "atm": "yes", "name": "\u0987\u09b8\u09b2\u09be\u09ae\u09c0 \u09ac\u09cd\u09af\u09be\u0982\u0995 \u09ac\u09be\u0982\u09b2\u09be\u09a6\u09c7\u09b6 \u09b2\u09bf\u09ae\u09bf\u099f\u09c7\u09a1", "name:en": "Islami Bank Bangladesh Limited"}}, {"type": "node", "id": 5174322578, "lat": 24.0554615, "lon": 90.9825396}, {"type": "node", "id": 5174322579, "lat": 24.0555302, "lon": 90.9828181}, {"type": "node", "id": 5174322580, "lat": 24.0553631, "lon": 90.9828811}, {"type": "node", "id": 5174322581, "lat": 24.0553489, "lon": 90.9827279}, {"type": "node", "id": 5174322582, "lat": 24.0553408, "lon": 90.9826514}, {"type": "node", "id": 5174322583, "lat": 24.0553705, "lon": 90.9825619}, {"type": "node", "id": 5174341689, "lat": 24.0553631, "lon": 90.9826412, "tags": {"addr:city": "Dhaka-Sylhet Highway", "amenity": "bank", "name": "\u099c\u09a8\u09a4\u09be \u09ac\u09cd\u09af\u09be\u0982\u0995 \u09b2\u09bf\u09ae\u09bf\u099f\u09c7\u09a1", "name:en": "Janata Bank Limited"}}, {"type": "node", "id": 5174341690, "lat": 24.0553343, "lon": 90.9825761}, {"type": "node", "id": 5174342868, "lat": 24.0554751, "lon": 90.9824621, "tags": {"addr:city": "Dhaka-Sylhet Highway", "name": "\u09a8\u09bf\u099f\u09b2 \u09ae\u099f\u09b0\u09b8 \u09b2\u09bf\u09ae\u09bf\u099f\u09c7\u09a1", "name:bn": "\u09a8\u09bf\u099f\u09b2 \u09ae\u099f\u09b0\u09b8 \u09b2\u09bf\u09ae\u09bf\u099f\u09c7\u09a1", "name:en": "NITOL Motors Limited", "shop": "car"}}, {"type": "node", "id": 5174343082, "lat": 24.0554574, "lon": 90.9821121, "tags": {"addr:city": "Dhaka-Sylhet Highway", "name": "\u09ae\u09cb\u09b2\u09cd\u09b2\u09be \u09b8\u09c1\u099c", "name:bn": "\u09ae\u09cb\u09b2\u09cd\u09b2\u09be \u09b8\u09c1\u099c", "name:en": "Molla shoes", "shop": "shoes"}}, {"type": "node", "id": 5174343162, "lat": 24.0555845, "lon": 90.9827932, "tags": {"addr:city": "Dhaka-Sylhet Highway", "amenity": "restaurant", "name": "\u0986\u09b2 \u0986\u099c\u09bf\u099c\u09bf\u09df\u09be \u09b9\u09cb\u099f\u09c7\u09b2 \u0993 \u09b8\u09c1\u0987\u099f\u09ae\u09bf\u099f\u09b8", "name:bn": "\u0986\u09b2 \u0986\u099c\u09bf\u099c\u09bf\u09df\u09be \u09b9\u09cb\u099f\u09c7\u09b2 \u0993 \u09b8\u09c1\u0987\u099f\u09ae\u09bf\u099f\u09b8", "name:en": "Al Azizia Hotel & Sweetmeats"}}, {"type": "node", "id": 5174344185, "lat": 24.0554459, "lon": 90.9822767, "tags": {"addr:city": "Dhaka-Sylhet Highway", "amenity": "marketplace", "name": "\u09ab\u09b2\u09aa\u099f\u09cd\u099f\u09bf"}}, {"type": "node", "id": 5174345773, "lat": 24.0555039, "lon": 90.9819651, "tags": {"addr:city": "Dhaka-Sylhet Highway", "name": "\u09aa\u09aa\u09bf \u0985\u099f\u09cb \u09ae\u099f\u09b0\u09b8\u09cd", "shop": "car_repair"}}, {"type": "node", "id": 5174347962, "lat": 24.0555195, "lon": 90.9817768, "tags": {"addr:city": "Dhaka-Sylhet Highway", "amenity": "restaurant", "name": "\u09b8\u09cd\u099f\u09be\u09ab \u09b9\u09cb\u099f\u09c7\u09b2 \u098f\u09ac\u0982 \u09b0\u09c7\u09b8\u09cd\u099f\u09c1\u09b0\u09c7\u09a8\u09cd\u099f", "name:bn": "\u09b8\u09cd\u099f\u09be\u09ab \u09b9\u09cb\u099f\u09c7\u09b2 \u098f\u09ac\u0982 \u09b0\u09c7\u09b8\u09cd\u099f\u09c1\u09b0\u09c7\u09a8\u09cd\u099f", "name:en": "Staff Hotel and Resturant"}}, {"type": "node", "id": 5174353637, "lat": 24.0550776, "lon": 90.9824086, "tags": {"addr:city": "Dhaka-Sylhet Highway", "name": "\u099c\u09c0\u09ac\u09a8 \u09b8\u09c1\u0987\u099f \u0993 \u09ae\u09bf\u09b7\u09cd\u099f\u09be\u09a8\u09cd\u09a8 \u09ad\u09be\u09a8\u09cd\u09a1\u09be\u09b0", "name:bn": "\u099c\u09c0\u09ac\u09a8 \u09b8\u09c1\u0987\u099f \u0993 \u09ae\u09bf\u09b7\u09cd\u099f\u09be\u09a8\u09cd\u09a8 \u09ad\u09be\u09a8\u09cd\u09a1\u09be\u09b0", "name:en": "Jibon Sweet And Mistanno Vandar", "shop": "candles"}}, {"type": "node", "id": 5174356321, "lat": 24.05505, "lon": 90.9826551, "tags": {"addr:city": "Dhaka-Sylhet Highway", "amenity": "restaurant", "name": "\u09b8\u09bf\u09a8\u09cd-\u099c\u09bf\u09ae \u09b0\u09c7\u09b8\u09cd\u099f\u09c1\u09b0\u09c7\u09a8\u09cd\u099f", "name:en": "Sin-Jim Resturant"}}, {"type": "node", "id": 5174357051, "lat": 24.0552512, "lon": 90.9820687}, {"type": "node", "id": 5174357052, "lat": 24.0545139, "lon": 90.9821706}, {"type": "node", "id": 5174357053, "lat": 24.0544331, "lon": 90.9813525}, {"type": "node", "id": 5174357054, "lat": 24.0553369, "lon": 90.9812291}, {"type": "node", "id": 5174358046, "lat": 24.0551452, "lon": 90.9810511, "tags": {"addr:city": "Dhaka-Sylhet Highway", "name": "Walton", "shop": "electronics"}}, {"type": "node", "id": 5175718594, "lat": 24.0558112, "lon": 90.9796369, "tags": {"addr:city": "Dhaka-Sylhet Highway", "amenity": "fuel", "name": "Bhai Bhai Filling Station"}}, {"type": "node", "id": 5175722157, "lat": 24.0560336, "lon": 90.9770845, "tags": {"addr:city": "Dhaka-Sylhet Highway", "amenity": "fast_food", "name": "Niloy Fast Food And General Store"}}, {"type": "node", "id": 5175728484, "lat": 24.0561084, "lon": 90.9769127, "tags": {"addr:city": "Dhaka-Sylhet Highway", "amenity": "fuel", "name": "Nuha Energy Resources"}}, {"type": "node", "id": 5175728504, "lat": 24.0558742, "lon": 90.9746189}, {"type": "node", "id": 5175728505, "lat": 24.0559544, "lon": 90.9748191}, {"type": "node", "id": 5175728506, "lat": 24.0556689, "lon": 90.9749593}, {"type": "node", "id": 5175728507, "lat": 24.0555816, "lon": 90.974776}, {"type": "node", "id": 5175731481, "lat": 24.0566625, "lon": 90.973801, "tags": {"addr:city": "Dhaka - Sylhet Hwy", "amenity": "fuel", "name": "Belaab CNG Station"}}, {"type": "node", "id": 5175731763, "lat": 24.0568964, "lon": 90.9714748}, {"type": "node", "id": 5175731764, "lat": 24.0564698, "lon": 90.9735063}, {"type": "node", "id": 5175731766, "lat": 24.0576106, "lon": 90.9728567}, {"type": "node", "id": 5175731767, "lat": 24.0573909, "lon": 90.9724799}, {"type": "node", "id": 5175731768, "lat": 24.0575169, "lon": 90.9723808}, {"type": "node", "id": 5175731769, "lat": 24.0573166, "lon": 90.9719596}, {"type": "node", "id": 5175731770, "lat": 24.0572648, "lon": 90.9719844}, {"type": "node", "id": 5175731771, "lat": 24.0572164, "lon": 90.9718818}, {"type": "node", "id": 5175731772, "lat": 24.0572907, "lon": 90.9718287}, {"type": "node", "id": 5175731773, "lat": 24.0570742, "lon": 90.9713367}, {"type": "node", "id": 5175731953, "lat": 24.0566677, "lon": 90.9661067, "tags": {"addr:city": "Dhaka-sylhet Hwy", "amenity": "marketplace", "name": "\u09f0\u09c7\u09a3\u09c0 \u09ac\u09be\u099c\u09be\u09b0"}}, {"type": "node", "id": 5175743510, "lat": 24.054997, "lon": 90.9282644, "tags": {"addr:city": "Dhaka - Sylhet Hwy", "amenity": "fuel", "name": "Jamuna Filing Station."}}, {"type": "node", "id": 5175747355, "lat": 24.0550382, "lon": 90.9360851, "tags": {"addr:city": "Dhaka-sylhet Hwy", "amenity": "marketplace", "name": "Nilkuti Bazar"}}, {"type": "node", "id": 5175791730, "lat": 24.0546692, "lon": 90.9198604, "tags": {"addr:city": "dhaka-Sylhet Hwy", "amenity": "fuel", "name": "Gas Station"}}, {"type": "node", "id": 5175792891, "lat": 24.0551477, "lon": 90.9195408, "tags": {"addr:city": "dhaka-Sylhet Hwy", "amenity": "bank", "name": "\u09ac\u09cd\u09b0\u09cd\u09af\u09be\u0995 \u09ac\u09cd\u09af\u09be\u0982\u0995 \u09b2\u09bf\u09ae\u09bf\u099f\u09c7\u09a1", "name:en": "BRAC Bank Limited"}}, {"type": "node", "id": 5175837655, "lat": 24.0540069, "lon": 90.9183569, "tags": {"addr:city": "dhaka-Sylhet Hwy", "amenity": "pharmacy", "healthcare": "pharmacy", "name": "momen medical hall"}}, {"type": "node", "id": 5175838592, "lat": 24.054967, "lon": 90.9188152, "tags": {"addr:city": "dhaka-Sylhet Hwy", "name": "Rased Computer and Stationary", "shop": "stationery"}}, {"type": "node", "id": 5175838614, "lat": 24.0542343, "lon": 90.9192565}, {"type": "node", "id": 5175838615, "lat": 24.0541963, "lon": 90.9193303}, {"type": "node", "id": 5175838616, "lat": 24.0541767, "lon": 90.9193209}, {"type": "node", "id": 5175838617, "lat": 24.0541608, "lon": 90.9193652}, {"type": "node", "id": 5175838618, "lat": 24.0540763, "lon": 90.919329}, {"type": "node", "id": 5175838619, "lat": 24.0541363, "lon": 90.9192083}, {"type": "node", "id": 5175842440, "lat": 24.0532914, "lon": 90.908076, "tags": {"addr:city": "Dhaka-Sylhet Hwy", "amenity": "fast_food", "name": "Sunny Fast Food And Restaurant"}}, {"type": "node", "id": 5175842968, "lat": 24.0531849, "lon": 90.907679, "tags": {"addr:city": "Dhaka-Sylhet Hwy", "amenity": "fuel", "name": "Lal Miah Filling Station."}}, {"type": "node", "id": 5175844387, "lat": 24.0516144, "lon": 90.8728621, "tags": {"addr:city": "Dhaka - Sylhet Hwy", "amenity": "restaurant", "name": "\u09b0\u09b0\u09bf\u09a8 \u09b9\u09be\u0989\u099c"}}, {"type": "node", "id": 5175845063, "lat": 24.0510301, "lon": 90.8700674, "tags": {"addr:city": "Dhaka - Sylhet Hwy", "amenity": "bank", "name": "Baroicha Near By Girls School"}}, {"type": "node", "id": 5175845632, "lat": 24.0511391, "lon": 90.8710143, "tags": {"addr:city": "Dhaka - Sylhet Hwy", "amenity": "bank", "name": "Agrani DOER Banking"}}, {"type": "node", "id": 5175847201, "lat": 24.0511302, "lon": 90.8700871, "tags": {"addr:city": "Dhaka - Sylhet Hwy", "amenity": "bank", "name": "Agrani bank Ltd-Baroicha Agent Banking_Bhairab bazar sakha"}}, {"type": "node", "id": 5175847647, "lat": 24.0512585, "lon": 90.8695614, "tags": {"amenity": "bus_station", "name": "Baroicha Bus Stop"}}, {"type": "node", "id": 5175847837, "lat": 24.0512181, "lon": 90.8691682, "tags": {"addr:city": "Dhaka - Sylhet Hwy", "name": "sornally computuar", "shop": "yes"}}, {"type": "node", "id": 5175848786, "lat": 24.0511778, "lon": 90.8690598, "tags": {"addr:city": "Dhaka - Sylhet Hwy", "amenity": "restaurant", "name": "Soudagar hotel & Restaurant"}}, {"type": "node", "id": 5175849996, "lat": 24.0477266, "lon": 90.8639711, "tags": {"addr:city": "Dhaka - Sylhet Hwy", "amenity": "marketplace", "name": "Shibpur Wholesale Vegetable Bazaar"}}, {"type": "node", "id": 5175851823, "lat": 24.0468114, "lon": 90.8647815, "tags": {"addr:city": "Dhaka - Sylhet Hwy", "name": "Jongli Shibpur Bazar", "shop": "supermarket"}}, {"type": "node", "id": 5175852221, "lat": 24.0481627, "lon": 90.8636161, "tags": {"amenity": "bus_station", "name": "Shibpur Bazar Bus Stop"}}, {"type": "node", "id": 5175857024, "lat": 24.0443836, "lon": 90.8585699, "tags": {"addr:city": "Dhaka-sylhet Hwy", "name": "Chepagat Bazaar", "shop": "variety_store"}}, {"type": "node", "id": 5175859319, "lat": 24.0347337, "lon": 90.8334182, "tags": {"addr:city": "Dhaka - Sylhet Hwy", "amenity": "restaurant", "name": "Daruchini Restuarant and Party House"}}, {"type": "node", "id": 5175864196, "lat": 24.0348219, "lon": 90.8335657, "tags": {"addr:city": "Dhaka - Sylhet Hwy", "amenity": "pharmacy", "healthcare": "pharmacy", "name": "Ifra Poultry Feeds & Medicine"}}, {"type": "node", "id": 5175871856, "lat": 24.0349188, "lon": 90.8329217, "tags": {"addr:city": "Dhaka - Sylhet Hwy", "name": "Satata Enterprise", "shop": "yes"}}, {"type": "node", "id": 5175873565, "lat": 24.0349956, "lon": 90.8326383, "tags": {"addr:city": "Dhaka - Sylhet Hwy", "amenity": "marketplace", "name": "Marjal Bus Station Fish Market"}}, {"type": "node", "id": 5175875149, "lat": 24.0347782, "lon": 90.832611, "tags": {"addr:city": "Dhaka - Sylhet Hwy", "name": "Marjal Digital Printing Works", "shop": "stationery"}}, {"type": "node", "id": 5175875283, "lat": 24.0346643, "lon": 90.8325149, "tags": {"addr:city": "Dhaka - Sylhet Hwy", "amenity": "marketplace", "name": "Marjal Bus Station Vegetable Market"}}, {"type": "node", "id": 5175876520, "lat": 24.0345711, "lon": 90.8321138, "tags": {"addr:city": "Dhaka - Sylhet Hwy", "name": "\u09a4\u09c1\u09b9\u09bf\u09a8 \u09b8\u09c1\u09aa\u09be\u09b0 \u09b6\u09aa", "shop": "yes"}}, {"type": "node", "id": 5175877215, "lat": 24.0345718, "lon": 90.8320096, "tags": {"addr:city": "Dhaka - Sylhet Hwy", "amenity": "marketplace", "name": "\u099c\u09be\u09b9\u09be\u0999\u09cd\u0997\u09c0\u09b0 \u09b8\u09c1\u09aa\u09be\u09b0 \u09ae\u09be\u09b0\u09cd\u0995\u09c7\u099f"}}, {"type": "node", "id": 5175878986, "lat": 24.0346992, "lon": 90.8321843, "tags": {"addr:city": "Dhaka - Sylhet Hwy", "name": "\u099c\u09a8\u09a4\u09be \u09aa\u09c7\u0987\u09a8\u09cd\u099f \u098f\u09ac\u0982 \u09b9\u09be\u09b0\u09cd\u09a1\u0993\u09af\u09bc\u09cd\u09af\u09be\u09b0", "shop": "paint"}}, {"type": "node", "id": 5175879421, "lat": 24.0348237, "lon": 90.8321793, "tags": {"addr:city": "Dhaka - Sylhet Hwy", "name": "\u09ac\u09b6\u09bf\u09b0 \u09b8\u09c1\u09aa\u09be\u09b0 \u09b7\u09cd\u099f\u09cb\u09b0", "shop": "yes"}}, {"type": "node", "id": 5175880001, "lat": 24.0349804, "lon": 90.8322284, "tags": {"addr:city": "Dhaka - Sylhet Hwy", "name": "Chand Miah Traders", "shop": "yes"}}, {"type": "node", "id": 5175881319, "lat": 24.0352672, "lon": 90.8322495, "tags": {"addr:city": "Marjal", "name": "M/S Modina Traders Morjal", "shop": "yes"}}, {"type": "node", "id": 5175882244, "lat": 24.0351893, "lon": 90.8320712, "tags": {"addr:city": "Marjal", "name": "Faruque Electrice Shop", "shop": "electronics"}}, {"type": "node", "id": 5175882573, "lat": 24.0343339, "lon": 90.8325049, "tags": {"amenity": "bus_station", "name": "Marjal Bus Stop"}}, {"type": "node", "id": 5175949028, "lat": 24.0342919, "lon": 90.8326529, "tags": {"addr:city": "Dhaka - Sylhet Hwy", "amenity": "restaurant", "name": "Hotel Sobuj Bangla"}}, {"type": "node", "id": 5175954417, "lat": 24.0341641, "lon": 90.8327543, "tags": {"addr:city": "Dhaka - Sylhet Hwy", "name": "Shahjahan prodan super market", "shop": "mall"}}, {"type": "node", "id": 5175954419, "lat": 24.0341272, "lon": 90.8323163, "tags": {"addr:city": "Dhaka - Sylhet Hwy", "name": "\u09ae\u09be-\u09ae\u09a8\u09bf \u09a1\u09c7\u0995\u09cb\u09b0\u09c7\u099f\u09b0", "shop": "yes"}}, {"type": "node", "id": 5175973829, "lat": 24.0333331, "lon": 90.8303824}, {"type": "node", "id": 5175973830, "lat": 24.0334538, "lon": 90.8305653}, {"type": "node", "id": 5175973831, "lat": 24.0333981, "lon": 90.8305999}, {"type": "node", "id": 5175973832, "lat": 24.0332598, "lon": 90.8303966}, {"type": "node", "id": 5175975475, "lat": 24.0335217, "lon": 90.8316649}, {"type": "node", "id": 5175975476, "lat": 24.0335314, "lon": 90.8317384}, {"type": "node", "id": 5175975477, "lat": 24.0337318, "lon": 90.8316711}, {"type": "node", "id": 5175975478, "lat": 24.0336986, "lon": 90.8316145}, {"type": "node", "id": 5175976701, "lat": 24.0341982, "lon": 90.8318572, "tags": {"addr:city": "Dhaka - Sylhet Hwy", "name": "Marjal Bus Station Fruits Market", "shop": "yes"}}, {"type": "node", "id": 5175977203, "lat": 24.034139, "lon": 90.8314622, "tags": {"addr:city": "Dhaka - Sylhet Hwy", "amenity": "marketplace", "name": "Marjal Poultry Market"}}, {"type": "node", "id": 5175977466, "lat": 24.0340414, "lon": 90.8315894, "tags": {"addr:city": "Dhaka - Sylhet Hwy", "amenity": "restaurant", "name": "JFC"}}, {"type": "node", "id": 5175990401, "lat": 24.0330517, "lon": 90.8297692, "tags": {"addr:city": "Dhaka - Sylhet Hwy", "amenity": "marketplace", "name": "\u09ae\u09b0\u099c\u09be\u09b2 \u0995\u09be\u09a0 \u09ac\u09be\u099c\u09be\u09b0"}}, {"type": "node", "id": 5175990466, "lat": 24.0330274, "lon": 90.8304692, "tags": {"addr:city": "Dhaka - Sylhet Hwy", "name": "\u0996\u09cb\u0995\u09a8 \u09ad\u09be\u09b2\u09ac\u09be\u09b8\u09be\u09b0 \u09a6\u09cb\u0995\u09be\u09a8", "shop": "yes"}}, {"type": "node", "id": 5175992783, "lat": 24.0321101, "lon": 90.8303244, "tags": {"addr:city": "Dhaka - Sylhet Hwy", "amenity": "marketplace", "name": "R&S Poultry"}}, {"type": "node", "id": 5175994624, "lat": 24.0308877, "lon": 90.8259362, "tags": {"addr:city": "Dhaka - Sylhet Hwy", "amenity": "marketplace", "name": "Gabtoli Bazar \u0997\u09be\u09ac\u09a4\u09b2\u09c0 \u09ac\u09be\u099c\u09be\u09b0"}}, {"type": "node", "id": 5175995860, "lat": 24.026392, "lon": 90.8178429}, {"type": "node", "id": 5175995861, "lat": 24.0263935, "lon": 90.8186706}, {"type": "node", "id": 5175995862, "lat": 24.0260274, "lon": 90.8186714}, {"type": "node", "id": 5175995863, "lat": 24.0254815, "lon": 90.8178448}, {"type": "node", "id": 5626563973, "lat": 24.3816209, "lon": 90.7603741, "tags": {"amenity": "marketplace", "name": "choddoshoto bazar"}}, {"type": "node", "id": 5673289792, "lat": 24.2474928, "lon": 90.7950577, "tags": {"amenity": "college", "name": "katiadi College"}}, {"type": "node", "id": 5673290574, "lat": 24.2490262, "lon": 90.7951945, "tags": {"addr:city": "\u0995\u099f\u09bf\u09af\u09bc\u09be\u09a6\u09c0", "addr:street": "Puran bazar Road", "amenity": "school", "name": "katiadi Pilot High School", "religion": "none"}}, {"type": "node", "id": 5675833715, "lat": 24.2505962, "lon": 90.7985862, "tags": {"amenity": "hospital", "name": "\u0995\u099f\u09bf\u09af\u09bc\u09be\u09a6\u09bf \u09aa\u09b6\u09c1 \u09b9\u09be\u09b8\u09aa\u09be\u09a4\u09be\u09b2"}}, {"type": "node", "id": 5675992646, "lat": 24.2442826, "lon": 90.7967716}, {"type": "node", "id": 5675992647, "lat": 24.244988, "lon": 90.7962417}, {"type": "node", "id": 5675992648, "lat": 24.2449485, "lon": 90.7961653}, {"type": "node", "id": 5675992649, "lat": 24.2449791, "lon": 90.7962472}, {"type": "node", "id": 5675992650, "lat": 24.2447818, "lon": 90.7961848}, {"type": "node", "id": 5675992651, "lat": 24.2442829, "lon": 90.7965161}, {"type": "node", "id": 5675992652, "lat": 24.2442955, "lon": 90.7967877}, {"type": "node", "id": 5675992653, "lat": 24.2450227, "lon": 90.7963318}, {"type": "node", "id": 5703017472, "lat": 24.2444162, "lon": 90.8007225, "tags": {"amenity": "school", "name": "Kotiyadi 1 No. Primary Schol"}}, {"type": "node", "id": 5703017485, "lat": 24.2444138, "lon": 90.7999011, "tags": {"amenity": "school", "name": "Kotiyadi Pilot Girls Schol"}}, {"type": "node", "id": 5703017503, "lat": 24.244316, "lon": 90.7982576, "tags": {"amenity": "police", "name": "Kotiyadi Model Thana"}}, {"type": "node", "id": 5703021173, "lat": 24.2440298, "lon": 90.7975066, "tags": {"amenity": "bank", "name": "Islami Bank Bangladesh Limited(IBBL)"}}, {"type": "node", "id": 5703023229, "lat": 24.2524267, "lon": 90.7969192, "tags": {"name": "Osman Gani SuperMarket", "shop": "supermarket"}}, {"type": "node", "id": 5711177295, "lat": 24.0513408, "lon": 90.872266, "tags": {"amenity": "fuel", "name": "\u09ae\u09c7\u09b8\u09be\u09b0\u09cd\u09b8 \u098f\u09b2 \u098f\u09ae \u09ab\u09bf\u09b2\u09bf\u0982 \u09b8\u09cd\u099f\u09c7\u09b6\u09a8"}}, {"type": "node", "id": 5751703511, "lat": 24.0361159, "lon": 90.9612896, "tags": {"amenity": "marketplace", "name": "Noya Bazar"}}, {"type": "node", "id": 5758201258, "lat": 24.0574375, "lon": 90.9731175}, {"type": "node", "id": 5758201259, "lat": 24.0567415, "lon": 90.973667}, {"type": "node", "id": 5758201260, "lat": 24.0573957, "lon": 90.9730435}, {"type": "node", "id": 5758201261, "lat": 24.0574442, "lon": 90.9731267}, {"type": "node", "id": 5758201592, "lat": 24.0570209, "lon": 90.9732931}, {"type": "node", "id": 5758201593, "lat": 24.0568716, "lon": 90.9734369}, {"type": "node", "id": 5758201594, "lat": 24.0569222, "lon": 90.9735}, {"type": "node", "id": 5758201595, "lat": 24.0570716, "lon": 90.9733562}, {"type": "node", "id": 5758201596, "lat": 24.0569863, "lon": 90.9732503}, {"type": "node", "id": 5758201597, "lat": 24.0568345, "lon": 90.9733978}, {"type": "node", "id": 5758201598, "lat": 24.0568633, "lon": 90.9734333}, {"type": "node", "id": 5758201599, "lat": 24.0570151, "lon": 90.9732858}, {"type": "node", "id": 5758201600, "lat": 24.0569864, "lon": 90.9732412}, {"type": "node", "id": 5758201601, "lat": 24.056848, "lon": 90.9733713}, {"type": "node", "id": 5758201602, "lat": 24.0568229, "lon": 90.9733391}, {"type": "node", "id": 5758201603, "lat": 24.0569612, "lon": 90.973209}, {"type": "node", "id": 5758201604, "lat": 24.0568615, "lon": 90.973136}, {"type": "node", "id": 5758201605, "lat": 24.0567865, "lon": 90.9732628}, {"type": "node", "id": 5758201606, "lat": 24.0568455, "lon": 90.9733133}, {"type": "node", "id": 5758201607, "lat": 24.0569533, "lon": 90.973206}, {"type": "node", "id": 5758201608, "lat": 24.0567651, "lon": 90.9736408}, {"type": "node", "id": 5758201609, "lat": 24.0565349, "lon": 90.9734383}, {"type": "node", "id": 5758201610, "lat": 24.0565975, "lon": 90.9733529}, {"type": "node", "id": 5758201611, "lat": 24.0568277, "lon": 90.9735554}, {"type": "node", "id": 5758201612, "lat": 24.0568401, "lon": 90.9735575}, {"type": "node", "id": 5758201613, "lat": 24.0566993, "lon": 90.9734221}, {"type": "node", "id": 5758201614, "lat": 24.0567586, "lon": 90.9733482}, {"type": "node", "id": 5758201615, "lat": 24.0568994, "lon": 90.9734836}, {"type": "node", "id": 5758201616, "lat": 24.0567867, "lon": 90.9730815}, {"type": "node", "id": 5758201617, "lat": 24.056707, "lon": 90.9732078}, {"type": "node", "id": 5758201618, "lat": 24.0567765, "lon": 90.9732604}, {"type": "node", "id": 5758201619, "lat": 24.0568562, "lon": 90.9731342}, {"type": "node", "id": 5758201620, "lat": 24.0566993, "lon": 90.9732394}, {"type": "node", "id": 5758201821, "lat": 24.0566375, "lon": 90.9733574}, {"type": "node", "id": 5758201822, "lat": 24.0567071, "lon": 90.9734011}, {"type": "node", "id": 5758201823, "lat": 24.056769, "lon": 90.9732831}, {"type": "node", "id": 5758201824, "lat": 24.0573451, "lon": 90.9730244}, {"type": "node", "id": 5758201825, "lat": 24.0570475, "lon": 90.9732868}, {"type": "node", "id": 5758201826, "lat": 24.05711, "lon": 90.9733719}, {"type": "node", "id": 5758201827, "lat": 24.0574077, "lon": 90.9731094}, {"type": "node", "id": 5758201828, "lat": 24.0572847, "lon": 90.9729356}, {"type": "node", "id": 5758201829, "lat": 24.0569908, "lon": 90.9731957}, {"type": "node", "id": 5758201830, "lat": 24.0570439, "lon": 90.9732677}, {"type": "node", "id": 5758201831, "lat": 24.0573378, "lon": 90.9730075}, {"type": "node", "id": 5758201832, "lat": 24.0571056, "lon": 90.9730179}, {"type": "node", "id": 5758201833, "lat": 24.0570125, "lon": 90.9730829}, {"type": "node", "id": 5758201834, "lat": 24.0570176, "lon": 90.97298}, {"type": "node", "id": 5758201835, "lat": 24.0571137, "lon": 90.9729861}, {"type": "node", "id": 5758201836, "lat": 24.0569242, "lon": 90.9730608}, {"type": "node", "id": 5758201837, "lat": 24.0569599, "lon": 90.9730625}, {"type": "node", "id": 5758201838, "lat": 24.0569278, "lon": 90.972968}, {"type": "node", "id": 5758201839, "lat": 24.0569592, "lon": 90.9730803}, {"type": "node", "id": 5758201840, "lat": 24.0570084, "lon": 90.9730826}, {"type": "node", "id": 5758201841, "lat": 24.0570127, "lon": 90.972972}, {"type": "node", "id": 5758201842, "lat": 24.0569487, "lon": 90.9730826}, {"type": "node", "id": 5758201843, "lat": 24.0569127, "lon": 90.9730677}, {"type": "node", "id": 5758201844, "lat": 24.0569057, "lon": 90.9731166}, {"type": "node", "id": 5758201845, "lat": 24.056949, "lon": 90.9731534}, {"type": "node", "id": 5758201846, "lat": 24.0569817, "lon": 90.9731071}, {"type": "node", "id": 5758201847, "lat": 24.0571524, "lon": 90.9716541}, {"type": "node", "id": 5758201848, "lat": 24.0572228, "lon": 90.9718197}, {"type": "node", "id": 5758201849, "lat": 24.0571217, "lon": 90.9718072}, {"type": "node", "id": 5758201850, "lat": 24.0571376, "lon": 90.9716523}, {"type": "node", "id": 5758201851, "lat": 24.0570972, "lon": 90.9715256}, {"type": "node", "id": 5758201852, "lat": 24.0571151, "lon": 90.9718007}, {"type": "node", "id": 5758201853, "lat": 24.0570359, "lon": 90.9717932}, {"type": "node", "id": 5758201854, "lat": 24.0570646, "lon": 90.9715181}, {"type": "node", "id": 5758201855, "lat": 24.0571327, "lon": 90.9715974}, {"type": "node", "id": 5758201856, "lat": 24.0569544, "lon": 90.971511}, {"type": "node", "id": 5758201857, "lat": 24.0569336, "lon": 90.9717725}, {"type": "node", "id": 5758201858, "lat": 24.0570304, "lon": 90.9717818}, {"type": "node", "id": 5758201859, "lat": 24.0570512, "lon": 90.9715202}, {"type": "node", "id": 5758201860, "lat": 24.0575064, "lon": 90.9727955}, {"type": "node", "id": 5758201861, "lat": 24.0573547, "lon": 90.9729075}, {"type": "node", "id": 5758201862, "lat": 24.0574019, "lon": 90.9729842}, {"type": "node", "id": 5758201863, "lat": 24.0575536, "lon": 90.9728722}, {"type": "node", "id": 5758201864, "lat": 24.0574587, "lon": 90.9727147}, {"type": "node", "id": 5758201865, "lat": 24.0573705, "lon": 90.9727831}, {"type": "node", "id": 5758201866, "lat": 24.0573574, "lon": 90.9728976}, {"type": "node", "id": 5758201867, "lat": 24.0575056, "lon": 90.9727889}, {"type": "node", "id": 5758201868, "lat": 24.0573815, "lon": 90.9726628}, {"type": "node", "id": 5758201869, "lat": 24.0573779, "lon": 90.9727647}, {"type": "node", "id": 5758201870, "lat": 24.0574554, "lon": 90.9727111}, {"type": "node", "id": 5758201871, "lat": 24.0574156, "lon": 90.9726421}, {"type": "node", "id": 5758201872, "lat": 24.0573418, "lon": 90.9725135}, {"type": "node", "id": 5758201873, "lat": 24.0574018, "lon": 90.9726262}, {"type": "node", "id": 5758201874, "lat": 24.0572974, "lon": 90.9726119}, {"type": "node", "id": 5758201875, "lat": 24.057309, "lon": 90.97251}, {"type": "node", "id": 5758201876, "lat": 24.0571933, "lon": 90.9719628}, {"type": "node", "id": 5758201877, "lat": 24.057268, "lon": 90.9720795}, {"type": "node", "id": 5758201880, "lat": 24.0574505, "lon": 90.9723759}, {"type": "node", "id": 5758201881, "lat": 24.0567965, "lon": 90.9729445}, {"type": "node", "id": 5758201882, "lat": 24.056781, "lon": 90.9730702}, {"type": "node", "id": 5758201883, "lat": 24.0569013, "lon": 90.9731228}, {"type": "node", "id": 5758201884, "lat": 24.0569156, "lon": 90.9729568}, {"type": "node", "id": 5758201885, "lat": 24.0568778, "lon": 90.9729404}, {"type": "node", "id": 5758201886, "lat": 24.0567953, "lon": 90.9729304}, {"type": "node", "id": 5758201887, "lat": 24.0568322, "lon": 90.9725657}, {"type": "node", "id": 5758201888, "lat": 24.0569147, "lon": 90.9725757}, {"type": "node", "id": 5758201889, "lat": 24.0569697, "lon": 90.9729556}, {"type": "node", "id": 5758201890, "lat": 24.056889, "lon": 90.9729458}, {"type": "node", "id": 5758201891, "lat": 24.0569261, "lon": 90.972579}, {"type": "node", "id": 5758201892, "lat": 24.0570069, "lon": 90.9725888}, {"type": "node", "id": 5758201893, "lat": 24.0570585, "lon": 90.9729701}, {"type": "node", "id": 5758201894, "lat": 24.0569785, "lon": 90.9729604}, {"type": "node", "id": 5758201895, "lat": 24.0570159, "lon": 90.9725907}, {"type": "node", "id": 5758201896, "lat": 24.0570958, "lon": 90.9726004}, {"type": "node", "id": 5758201897, "lat": 24.0571501, "lon": 90.9729825}, {"type": "node", "id": 5758201898, "lat": 24.0570672, "lon": 90.9729713}, {"type": "node", "id": 5758201899, "lat": 24.0571079, "lon": 90.9726075}, {"type": "node", "id": 5758201900, "lat": 24.0571909, "lon": 90.9726186}, {"type": "node", "id": 5758201901, "lat": 24.0572403, "lon": 90.9728859}, {"type": "node", "id": 5758201902, "lat": 24.0571774, "lon": 90.9728774}, {"type": "node", "id": 5758201903, "lat": 24.0572063, "lon": 90.9726195}, {"type": "node", "id": 5758201904, "lat": 24.0572692, "lon": 90.972628}, {"type": "node", "id": 5758201905, "lat": 24.0573312, "lon": 90.9728898}, {"type": "node", "id": 5758201906, "lat": 24.0572594, "lon": 90.9728801}, {"type": "node", "id": 5758201907, "lat": 24.0572868, "lon": 90.9726358}, {"type": "node", "id": 5758201908, "lat": 24.0573586, "lon": 90.9726454}, {"type": "node", "id": 5758201909, "lat": 24.0569281, "lon": 90.9725591}, {"type": "node", "id": 5758201910, "lat": 24.0568467, "lon": 90.9725482}, {"type": "node", "id": 5758201911, "lat": 24.0568872, "lon": 90.9721872}, {"type": "node", "id": 5758201912, "lat": 24.0569686, "lon": 90.9721982}, {"type": "node", "id": 5758201913, "lat": 24.0570116, "lon": 90.9725656}, {"type": "node", "id": 5758201914, "lat": 24.0569367, "lon": 90.9725556}, {"type": "node", "id": 5758201915, "lat": 24.056977, "lon": 90.9721962}, {"type": "node", "id": 5758201916, "lat": 24.0570519, "lon": 90.9722062}, {"type": "node", "id": 5758201917, "lat": 24.0571066, "lon": 90.9725842}, {"type": "node", "id": 5758201918, "lat": 24.057028, "lon": 90.9725737}, {"type": "node", "id": 5758201919, "lat": 24.0570688, "lon": 90.9722097}, {"type": "node", "id": 5758201920, "lat": 24.0571474, "lon": 90.9722203}, {"type": "node", "id": 5758202021, "lat": 24.0571956, "lon": 90.9725999}, {"type": "node", "id": 5758202022, "lat": 24.0571149, "lon": 90.9725891}, {"type": "node", "id": 5758202023, "lat": 24.0571555, "lon": 90.9722269}, {"type": "node", "id": 5758202024, "lat": 24.0572362, "lon": 90.9722377}, {"type": "node", "id": 5758202025, "lat": 24.057283, "lon": 90.9726092}, {"type": "node", "id": 5758202026, "lat": 24.057208, "lon": 90.9725992}, {"type": "node", "id": 5758202027, "lat": 24.0572487, "lon": 90.9722357}, {"type": "node", "id": 5758202028, "lat": 24.0573237, "lon": 90.9722458}, {"type": "node", "id": 5758202029, "lat": 24.0573182, "lon": 90.9724838}, {"type": "node", "id": 5758202031, "lat": 24.057342, "lon": 90.9722472}, {"type": "node", "id": 5758202032, "lat": 24.0573966, "lon": 90.9722545}, {"type": "node", "id": 5758202033, "lat": 24.0573298, "lon": 90.9722261}, {"type": "node", "id": 5758202034, "lat": 24.057257, "lon": 90.9722163}, {"type": "node", "id": 5758202035, "lat": 24.0572876, "lon": 90.9720529}, {"type": "node", "id": 5758202036, "lat": 24.0573421, "lon": 90.9721164}, {"type": "node", "id": 5758202037, "lat": 24.0572439, "lon": 90.972217}, {"type": "node", "id": 5758202038, "lat": 24.0571639, "lon": 90.9722062}, {"type": "node", "id": 5758202039, "lat": 24.0571817, "lon": 90.9720472}, {"type": "node", "id": 5758202040, "lat": 24.0572617, "lon": 90.9720579}, {"type": "node", "id": 5758202041, "lat": 24.0571539, "lon": 90.9722038}, {"type": "node", "id": 5758202042, "lat": 24.057077, "lon": 90.9721935}, {"type": "node", "id": 5758202043, "lat": 24.0571182, "lon": 90.9718253}, {"type": "node", "id": 5758202044, "lat": 24.0571952, "lon": 90.9718356}, {"type": "node", "id": 5758202045, "lat": 24.0570677, "lon": 90.9721911}, {"type": "node", "id": 5758202046, "lat": 24.0569857, "lon": 90.9721801}, {"type": "node", "id": 5758202047, "lat": 24.0570275, "lon": 90.9718076}, {"type": "node", "id": 5758202048, "lat": 24.0571094, "lon": 90.9718186}, {"type": "node", "id": 5758202049, "lat": 24.0569349, "lon": 90.9717932}, {"type": "node", "id": 5758202050, "lat": 24.0568933, "lon": 90.9721647}, {"type": "node", "id": 5758202051, "lat": 24.0569729, "lon": 90.9721754}, {"type": "node", "id": 5758202052, "lat": 24.0570145, "lon": 90.9718039}, {"type": "node", "id": 5759074522, "lat": 24.0549657, "lon": 90.9783277, "tags": {"amenity": "police", "name": "Bhairab Model Thana"}}, {"type": "node", "id": 5768027105, "lat": 24.0474196, "lon": 90.8632994}, {"type": "node", "id": 5768027106, "lat": 24.0481208, "lon": 90.8641509}, {"type": "node", "id": 5768027107, "lat": 24.0475426, "lon": 90.8649623}, {"type": "node", "id": 5768027108, "lat": 24.0471448, "lon": 90.8654082}, {"type": "node", "id": 5768027109, "lat": 24.0459443, "lon": 90.8645402}, {"type": "node", "id": 5768034606, "lat": 24.046465, "lon": 90.8650867}, {"type": "node", "id": 5866144707, "lat": 24.398882, "lon": 91.1161423, "tags": {"amenity": "marketplace", "name": "Chagra Bazar"}}, {"type": "node", "id": 5866167704, "lat": 24.4158116, "lon": 91.054546, "tags": {"amenity": "bank", "name": "Exim Bank Limited"}}, {"type": "node", "id": 5866192340, "lat": 24.41527, "lon": 91.0564457, "tags": {"amenity": "marketplace", "name": "Mithamoin kath Bazar"}}, {"type": "node", "id": 5866194292, "lat": 24.4160057, "lon": 91.0533102, "tags": {"amenity": "bank", "name": "Sonali Bank Limited"}}, {"type": "node", "id": 5866203323, "lat": 24.4156449, "lon": 91.0541001, "tags": {"amenity": "hospital", "name": "Mithamoin Upazila Health Complex"}}, {"type": "node", "id": 6068395625, "lat": 24.0419619, "lon": 91.0120786, "tags": {"amenity": "school", "name": "Apscl \u09aa\u09cd\u09b0\u09b6\u09bf\u0995\u09cd\u09b7\u09a3 \u0995\u09c7\u09a8\u09cd\u09a6\u09cd\u09b0 \u09ac\u09be\u09b2\u0995 \u09b9\u09b2", "name:en": "Apscl Training Center"}}, {"type": "node", "id": 6068395630, "lat": 24.0414119, "lon": 91.0120048, "tags": {"amenity": "fast_food", "name": "APSCL \u0995\u09cd\u09af\u09be\u09a8\u09cd\u099f\u09bf\u09a8", "name:en": "APSCL Canteen"}}, {"type": "node", "id": 6068395637, "lat": 24.0419814, "lon": 91.0118448}, {"type": "node", "id": 6068395638, "lat": 24.0415491, "lon": 91.0121345}, {"type": "node", "id": 6068395639, "lat": 24.0415014, "lon": 91.0120491}, {"type": "node", "id": 6068395640, "lat": 24.0419337, "lon": 91.0117594}, {"type": "node", "id": 6069898786, "lat": 24.0415663, "lon": 91.0120665, "tags": {"name": "\u09b0\u09bf\u09ab\u09be\u09a4 \u09b8\u09cd\u099f\u09cb\u09b0", "name:bn": "\u09b0\u09bf\u09ab\u09be\u09a4 \u09b8\u09cd\u099f\u09cb\u09b0", "name:en": "Rifat Store", "shop": "convenience"}}, {"type": "node", "id": 6069914490, "lat": 24.0416293, "lon": 91.0120313, "tags": {"shop": "convenience"}}, {"type": "node", "id": 6069914491, "lat": 24.0417108, "lon": 91.0119639, "tags": {"shop": "convenience"}}, {"type": "node", "id": 6069914492, "lat": 24.0417592, "lon": 91.0119317, "tags": {"shop": "tea"}}, {"type": "node", "id": 6069914493, "lat": 24.0419165, "lon": 91.0118161, "tags": {"shop": "photo"}}, {"type": "node", "id": 6069914494, "lat": 24.0418529, "lon": 91.0118687, "tags": {"name": "\u09b0\u09a4\u09a8 \u0995\u09be\u09a0", "name:bn": "\u09b0\u09a4\u09a8 \u0995\u09be\u09a0", "name:en": "Ratan Wood Craft", "shop": "doityourself"}}, {"type": "node", "id": 6069914495, "lat": 24.0416734, "lon": 91.0119904, "tags": {"amenity": "pharmacy"}}, {"type": "node", "id": 6069917285, "lat": 24.0417984, "lon": 91.0119009, "tags": {"amenity": "pharmacy"}}, {"type": "node", "id": 6120359805, "lat": 24.4141306, "lon": 91.1404833, "tags": {"addr:district": "Sunamganj", "addr:union": "Atgaon", "addr:ward": "9", "amenity": "clinic", "damage": "no", "description": "land 8 decimal, length 50 feet, width 30 feet, one storey building", "name": "Mamudnagar Community clinic", "name_disaster": "-", "source": "survey", "source:date": "2018-11-21", "source:name": "logic_undp", "source_ref": "https://www.openstreetmap.org/user/aHaSaN/diary", "type": "institutional"}}, {"type": "node", "id": 6149659830, "lat": 24.1982683, "lon": 90.9156673, "tags": {"amenity": "university", "name": "Johurul Islam Medical College"}}, {"type": "node", "id": 6152945043, "lat": 24.199335, "lon": 90.9177661, "tags": {"amenity": "college", "name": "Johurul Islam Nursing Training institute"}}, {"type": "node", "id": 6152945071, "lat": 24.2002679, "lon": 90.9171678}, {"type": "node", "id": 6152945072, "lat": 24.2002589, "lon": 90.9172334}, {"type": "node", "id": 6152945073, "lat": 24.2003261, "lon": 90.9171774}, {"type": "node", "id": 6152945074, "lat": 24.2003171, "lon": 90.917243}, {"type": "node", "id": 6152945075, "lat": 24.2002388, "lon": 90.9175407}, {"type": "node", "id": 6152945076, "lat": 24.2002278, "lon": 90.9176205}, {"type": "node", "id": 6152945077, "lat": 24.2002643, "lon": 90.9176266}, {"type": "node", "id": 6152945078, "lat": 24.2002753, "lon": 90.9175467}, {"type": "node", "id": 6152945079, "lat": 24.2001725, "lon": 90.9178989}, {"type": "node", "id": 6152945080, "lat": 24.2001646, "lon": 90.9179561}, {"type": "node", "id": 6152945081, "lat": 24.2002178, "lon": 90.9179649}, {"type": "node", "id": 6152945082, "lat": 24.2002257, "lon": 90.9179077}, {"type": "node", "id": 6152945083, "lat": 24.2003297, "lon": 90.9171513}, {"type": "node", "id": 6152945084, "lat": 24.2002135, "lon": 90.9179962}, {"type": "node", "id": 6152945147, "lat": 24.2021974, "lon": 90.9161206, "tags": {"amenity": "school", "name": "Begum Rohima Girls High School"}}, {"type": "node", "id": 6152945152, "lat": 24.2008934, "lon": 90.9156337, "tags": {"amenity": "school", "name": "Aftab uddin School And College"}}, {"type": "node", "id": 6152945492, "lat": 24.2004032, "lon": 90.9174893}, {"type": "node", "id": 6152945585, "lat": 24.2003308, "lon": 90.9180156}, {"type": "node", "id": 6152945586, "lat": 24.200447, "lon": 90.9171707}, {"type": "node", "id": 6152948127, "lat": 24.2003356, "lon": 90.9137025, "tags": {"amenity": "marketplace", "name": "Bhagolpur Bazar"}}, {"type": "node", "id": 6157843402, "lat": 24.23275, "lon": 90.9556094, "tags": {"amenity": "marketplace", "name": "Bangla Bazar"}}, {"type": "node", "id": 6158231313, "lat": 24.0550992, "lon": 90.9829143, "tags": {"amenity": "bus_station", "name": "\u09ad\u09c8\u09b0\u09ac \u09ac\u09be\u09b8 \u09b8\u09cd\u099f\u09c7\u09b6\u09a8", "name:en": "Bhairab Bus Station"}}, {"type": "node", "id": 6158231314, "lat": 24.0551176, "lon": 90.9831503, "tags": {"amenity": "bus_station", "name": "\u09ad\u09c8\u09b0\u09ac \u09ac\u09be\u09b8 \u09b8\u09cd\u099f\u09c7\u09b6\u09a8", "name:en": "Bhairab Bus Station"}}, {"type": "node", "id": 6158231315, "lat": 24.0553306, "lon": 90.983098, "tags": {"amenity": "bus_station", "name": "\u09ad\u09c8\u09b0\u09ac \u09ac\u09be\u09b8 \u09b8\u09cd\u099f\u09c7\u09b6\u09a8", "name:en": "Bhairab Bus Station"}}, {"type": "node", "id": 6163500159, "lat": 24.1464947, "lon": 90.9293922}, {"type": "node", "id": 6163500160, "lat": 24.146339, "lon": 90.9296046}, {"type": "node", "id": 6163500161, "lat": 24.1465424, "lon": 90.9297838}, {"type": "node", "id": 6163500162, "lat": 24.1466982, "lon": 90.9295713}, {"type": "node", "id": 6163500163, "lat": 24.1537264, "lon": 90.9322581, "tags": {"amenity": "police", "name": "Kuliarchar Police Station"}}, {"type": "node", "id": 6163500243, "lat": 24.1572885, "lon": 90.9288906, "tags": {"amenity": "hospital", "healthcare": "hospital", "name": "Kuliarchar Upazila Health Complex"}}, {"type": "node", "id": 6165505274, "lat": 24.3399438, "lon": 90.8257636, "tags": {"amenity": "college", "name": "Gachihata College"}}, {"type": "node", "id": 6370926905, "lat": 24.0619198, "lon": 90.9985324}, {"type": "node", "id": 6370926906, "lat": 24.0618626, "lon": 90.9983834}, {"type": "node", "id": 6370926907, "lat": 24.0617586, "lon": 90.9984314}, {"type": "node", "id": 6370926908, "lat": 24.0617531, "lon": 90.998417}, {"type": "node", "id": 6370926909, "lat": 24.0615991, "lon": 90.998488}, {"type": "node", "id": 6370926910, "lat": 24.0615583, "lon": 90.9983818}, {"type": "node", "id": 6370926911, "lat": 24.0618082, "lon": 90.9982667}, {"type": "node", "id": 6370926912, "lat": 24.0618453, "lon": 90.9983631}, {"type": "node", "id": 6370926913, "lat": 24.0619399, "lon": 90.9983195}, {"type": "node", "id": 6370926914, "lat": 24.0620064, "lon": 90.9984925}, {"type": "node", "id": 6370926928, "lat": 24.0574689, "lon": 90.9977013}, {"type": "node", "id": 6370926929, "lat": 24.0573942, "lon": 90.9977207}, {"type": "node", "id": 6370926930, "lat": 24.0572992, "lon": 90.9972822}, {"type": "node", "id": 6370926931, "lat": 24.0573739, "lon": 90.9972628}, {"type": "node", "id": 6370995592, "lat": 24.0615762, "lon": 90.9984465}, {"type": "node", "id": 6817035409, "lat": 24.054686, "lon": 90.9855631}, {"type": "node", "id": 6817035410, "lat": 24.0546669, "lon": 90.985468}, {"type": "node", "id": 6817035411, "lat": 24.0547337, "lon": 90.9854519}, {"type": "node", "id": 6817035412, "lat": 24.0547199, "lon": 90.9852868}, {"type": "node", "id": 6817035413, "lat": 24.0547072, "lon": 90.9852217}, {"type": "node", "id": 6817035414, "lat": 24.0547014, "lon": 90.9852911}, {"type": "node", "id": 6817035415, "lat": 24.0546888, "lon": 90.985226}, {"type": "node", "id": 6817035416, "lat": 24.0547071, "lon": 90.9851408}, {"type": "node", "id": 6817035417, "lat": 24.0546887, "lon": 90.9850463}, {"type": "node", "id": 6817035418, "lat": 24.0546737, "lon": 90.9851485}, {"type": "node", "id": 6817035419, "lat": 24.0546554, "lon": 90.9850541}, {"type": "node", "id": 7068978015, "lat": 24.158446, "lon": 90.8092039}, {"type": "node", "id": 7068978016, "lat": 24.1585674, "lon": 90.8091977}, {"type": "node", "id": 7068978017, "lat": 24.158564, "lon": 90.8090445}, {"type": "node", "id": 7068978018, "lat": 24.1584414, "lon": 90.8090483}, {"type": "node", "id": 7068978019, "lat": 24.1584437, "lon": 90.8091286}, {"type": "node", "id": 7069219473, "lat": 24.1565836, "lon": 90.8102427}, {"type": "node", "id": 7069219474, "lat": 24.1565884, "lon": 90.810308}, {"type": "node", "id": 7069224636, "lat": 24.1570429, "lon": 90.8097897}, {"type": "node", "id": 7069224637, "lat": 24.1570493, "lon": 90.8100225}, {"type": "node", "id": 7069255441, "lat": 24.1570349, "lon": 90.8101435}, {"type": "node", "id": 7069255443, "lat": 24.1567352, "lon": 90.8102933}, {"type": "node", "id": 7069255444, "lat": 24.1567309, "lon": 90.8101925}, {"type": "node", "id": 7069255448, "lat": 24.1569923, "lon": 90.8093317}, {"type": "node", "id": 7069255449, "lat": 24.156972, "lon": 90.8091728}, {"type": "node", "id": 7069255461, "lat": 24.1570129, "lon": 90.8093835}, {"type": "node", "id": 7069255462, "lat": 24.1570193, "lon": 90.8094357}, {"type": "node", "id": 7069255465, "lat": 24.1570113, "lon": 90.8094626}, {"type": "node", "id": 7069255466, "lat": 24.1570215, "lon": 90.8095811}, {"type": "node", "id": 7069274965, "lat": 24.1565834, "lon": 90.8102227}, {"type": "node", "id": 7069274966, "lat": 24.1565777, "lon": 90.8097243}, {"type": "node", "id": 7069274967, "lat": 24.1561423, "lon": 90.8097031}, {"type": "node", "id": 7069274968, "lat": 24.1564855, "lon": 90.8092483}, {"type": "node", "id": 7069274969, "lat": 24.1570451, "lon": 90.8100354}, {"type": "node", "id": 7069274970, "lat": 24.1570486, "lon": 90.8100936}, {"type": "node", "id": 7069274971, "lat": 24.1561484, "lon": 90.8092943}, {"type": "node", "id": 7069766324, "lat": 24.1557834, "lon": 90.8079934}, {"type": "node", "id": 7069766325, "lat": 24.1557834, "lon": 90.8082659}, {"type": "node", "id": 7069769156, "lat": 24.156049, "lon": 90.8079431}, {"type": "node", "id": 7069769157, "lat": 24.1557786, "lon": 90.8079431}, {"type": "node", "id": 7069769158, "lat": 24.1557858, "lon": 90.808414}, {"type": "node", "id": 7069769159, "lat": 24.1560538, "lon": 90.8083955}, {"type": "node", "id": 7074302188, "lat": 24.0296206, "lon": 91.0070997, "tags": {"amenity": "hospital", "name": "Ashuganj Upozila Hospital"}}, {"type": "node", "id": 7077817754, "lat": 24.1565834, "lon": 90.8101882}, {"type": "node", "id": 7077817755, "lat": 24.1565843, "lon": 90.8102355}, {"type": "node", "id": 7077819619, "lat": 24.1567125, "lon": 90.8102965}, {"type": "node", "id": 7080044350, "lat": 24.1546503, "lon": 90.8059086}, {"type": "node", "id": 7080044351, "lat": 24.1543592, "lon": 90.8059107}, {"type": "node", "id": 7080044354, "lat": 24.1549746, "lon": 90.8053779}, {"type": "node", "id": 7080044355, "lat": 24.1550767, "lon": 90.8055212}, {"type": "node", "id": 7080044356, "lat": 24.15504, "lon": 90.8055191}, {"type": "node", "id": 7080044357, "lat": 24.1550331, "lon": 90.8057507}, {"type": "node", "id": 7080044358, "lat": 24.1547979, "lon": 90.8057844}, {"type": "node", "id": 7080044359, "lat": 24.1546497, "lon": 90.8058146}, {"type": "node", "id": 7080044361, "lat": 24.1544057, "lon": 90.8051683}, {"type": "node", "id": 7080044362, "lat": 24.1548158, "lon": 90.8051535}, {"type": "node", "id": 7081773856, "lat": 24.2489644, "lon": 90.8978326, "tags": {"amenity": "school", "name": "Moitpur primary school"}}, {"type": "node", "id": 7167906985, "lat": 24.0472192, "lon": 90.9862728, "tags": {"addr:city": "Bhairab, Kishoregonj", "addr:housenumber": "VIP PLAZA, 1st", "addr:postcode": "2350", "addr:street": "Bangabandhu Sharani", "email": "bestpricebb@gmail.com", "internet_access": "wlan", "name": "BEST PRICE ELECTRONICS", "name:bn": "BEST PRICE ELECTRONICS", "opening_hours": "Mo-Su 10:00-21:30", "operator": "Salman Bhuiyan", "phone": "+8801876863488", "shop": "electronics", "website": "https://www.bestpricebb.com/"}}, {"type": "node", "id": 7191128067, "lat": 24.1543702, "lon": 90.8056977}, {"type": "node", "id": 7383109001, "lat": 24.1072945, "lon": 90.7669236}, {"type": "node", "id": 7383109002, "lat": 24.1073964, "lon": 90.7671818}, {"type": "node", "id": 7383133646, "lat": 24.1070502, "lon": 90.7670059}, {"type": "node", "id": 7383133647, "lat": 24.1071261, "lon": 90.7672694}, {"type": "node", "id": 7383182103, "lat": 24.1072141, "lon": 90.7670719, "tags": {"addr:city": "Narsingdi", "addr:postcode": "1651", "addr:street": "Gutashia Union Porishadh to Chula Bazar Road", "amenity": "school", "name": "\u09ee\u09ea \u09a8\u0982 \u099a\u09c1\u09b2\u09be \u09b8\u09b0\u0995\u09be\u09b0\u09c0 \u09aa\u09cd\u09b0\u09be\u09a5\u09ae\u09c0\u0995 \u09ac\u09bf\u09a6\u09cd\u09af\u09be\u09b2\u09df", "operator": "\u09b8\u09b0\u0995\u09be\u09b0", "operator:type": "government"}}, {"type": "node", "id": 7383696585, "lat": 24.046164, "lon": 90.8347153, "tags": {"addr:street": "Belabo-Morjal Road", "name:en": "Sojib Enterprise 2378", "phone": "+8801740914078", "shop": "tyres"}}, {"type": "node", "id": 7384874015, "lat": 24.0470909, "lon": 90.9863187, "tags": {"addr:city": "Bhairab Bazar", "addr:postcode": "2350", "addr:street": "Bangabandhu Sharani", "amenity": "hospital", "emergency": "yes", "healthcare": "hospital", "healthcare:speciality": "general;clinic", "name": "Anuwara General Hospital", "name:bn": "\u0986\u09a8\u09cb\u09df\u09be\u09b0\u09be \u099c\u09c7\u09a8\u09be\u09b0\u09c7\u09b2 \u09b9\u09be\u09b8\u09aa\u09be\u09a4\u09be\u09b2"}}, {"type": "node", "id": 7384967539, "lat": 24.0452489, "lon": 90.9862946, "tags": {"addr:city": "Bhairab, Kishoregonj", "addr:postcode": "2350", "addr:street": "College Road", "amenity": "school", "name": "Bhairab Govt. K.B Pilot Model High School", "name:bn": "\u09ad\u09c8\u09b0\u09ac \u09b8\u09b0\u0995\u09be\u09b0\u09bf \u0995\u09c7.\u09ac\u09bf \u09aa\u09be\u0987\u09b2\u099f \u09ae\u09a1\u09c7\u09b2 \u09b9\u09be\u0987 \u09b8\u09cd\u0995\u09c1\u09b2"}}, {"type": "node", "id": 7384984235, "lat": 24.0451656, "lon": 90.9856964, "tags": {"addr:city": "Bhairab, Kishoregonj", "addr:postcode": "2350", "addr:street": "Zillu Rahman Mohila College Road", "amenity": "college", "name": "Govt. Zillu Rahman Mohila College", "name:bn": "\u09b8\u09b0\u0995\u09be\u09b0\u09bf \u099c\u09bf\u09b2\u09cd\u09b2\u09c1 \u09b0\u09b9\u09ae\u09be\u09a8 \u09ae\u09b9\u09bf\u09b2\u09be \u0995\u09b2\u09c7\u099c"}}, {"type": "node", "id": 7384998017, "lat": 24.0449722, "lon": 90.9852551, "tags": {"addr:city": "Bhairab, Kishoregonj", "addr:postcode": "2350", "addr:street": "Zillu Rahman Mohila College Road", "amenity": "school", "name": "Scholars International School", "name:bn": "\u09b8\u09cd\u0995\u09b2\u09be\u09b0\u09cd\u09b8 \u0987\u09a8\u09cd\u099f\u09be\u09b0\u09a8\u09cd\u09af\u09be\u09b6\u09a8\u09be\u09b2 \u09b8\u09cd\u0995\u09c1\u09b2"}}, {"type": "node", "id": 7385041216, "lat": 24.0440439, "lon": 90.9825031, "tags": {"addr:city": "Bhairab, Kishoregonj", "addr:postcode": "2350", "addr:street": "Gurakanda Jute Mile Road", "amenity": "school", "mobile_phone:repair": "01815421675", "name": "Bhairab Aftabul Ulum Madrasah", "name:bn": "\u09ad\u09c8\u09b0\u09ac \u0986\u09ab\u09a4\u09be\u09ac\u09c1\u09b2 \u0989\u09b2\u09c1\u09ae \u0986\u09b2\u09bf\u09ae \u09ae\u09be\u09a6\u09cd\u09b0\u09be\u09b8\u09be"}}, {"type": "node", "id": 7387923485, "lat": 24.0444261, "lon": 90.9882771, "tags": {"addr:city": "Bhairab, Kishoregonj", "addr:postcode": "2350", "addr:street": "Chobigor Road", "amenity": "marketplace", "name": "Chobi Ghor Shopping Complex", "name:bn": "\u099b\u09ac\u09bf \u0998\u09b0 \u09b6\u09aa\u09bf\u0982 \u0995\u09ae\u09aa\u09cd\u09b2\u09c7\u0995\u09cd\u09b8"}}, {"type": "node", "id": 7387955487, "lat": 24.0557715, "lon": 90.9747936, "tags": {"addr:city": "Jogonnath Pur, Bhairab, Kishoregonj", "addr:postcode": "2350", "addr:street": "Dhaka - Sylhet Hwy", "amenity": "hospital", "healthcare": "hospital", "name": "Abedin Hospital (Pvt.)", "name:bn": "\u0986\u09ac\u09c7\u09a6\u09c0\u09a8 \u09b9\u09be\u09b8\u09aa\u09be\u09a4\u09be\u09b2 (\u09aa\u09cd\u09b0\u09be\u0983)"}}, {"type": "node", "id": 7387968172, "lat": 24.0550343, "lon": 90.9775375, "tags": {"addr:city": "New Town, Komolpur, Bhairab, Kishoregonj", "addr:postcode": "2350", "addr:street": "Dhaka - Sylhet Highway", "amenity": "hospital", "emergency": "no", "healthcare": "hospital", "name": "Al-Shefa Hospital", "name:bn": "\u0986\u09b2-\u09b6\u09c7\u09ab\u09be \u09b9\u09be\u09b8\u09aa\u09be\u09a4\u09be\u09b2", "operator": "A.B Siddik", "operator:type": "private"}}, {"type": "node", "id": 7388025014, "lat": 24.0468976, "lon": 90.9863808, "tags": {"addr:city": "Bhairab, Kishoregonj", "addr:postcode": "2350", "addr:street": "Bangabandhu Sharani", "amenity": "marketplace", "building": "yes", "name": "Salam Plaza", "name:bn": "\u09b8\u09be\u09b2\u09be\u09ae \u09aa\u09cd\u09b2\u09be\u099c\u09be"}}, {"type": "node", "id": 7388039610, "lat": 24.0435688, "lon": 90.9851684, "tags": {"addr:city": "Bhairab, Kishoregonj", "addr:postcode": "2350", "addr:street": "Ranir Bazar", "amenity": "marketplace", "name": "Kacha Bazar", "name:bn": "\u0995\u09be\u0981\u099a\u09be \u09ac\u09be\u099c\u09be\u09b0"}}, {"type": "node", "id": 7388134549, "lat": 24.0524439, "lon": 90.9838179, "tags": {"addr:city": "Bhairab, Kishoregonj", "addr:postcode": "2350", "addr:street": "Bangabandhu Sharani", "amenity": "school", "name": "Bhairab MP Pilot Girls High School", "name:bn": "\u09ad\u09c8\u09b0\u09ac \u098f\u09ae\u09aa\u09bf \u09aa\u09be\u0987\u09b2\u099f \u09ac\u09be\u09b2\u09bf\u0995\u09be \u0989\u099a\u09cd\u099a \u09ac\u09bf\u09a6\u09cd\u09af\u09be\u09b2\u09df"}}, {"type": "node", "id": 7388254548, "lat": 24.0487, "lon": 90.9859368, "tags": {"addr:city": "Bhairab, Kishoregonj", "addr:postcode": "2350", "addr:street": "Bangabandhu Sharani", "name": "Ice Company Bakery", "name:bn": "\u0986\u0987\u09b8 \u0995\u09cb\u09ae\u09cd\u09aa\u09be\u09a8\u09bf \u09ac\u09c7\u0995\u09be\u09b0\u09c0", "shop": "bakery"}}, {"type": "node", "id": 7388254550, "lat": 24.0479383, "lon": 90.9863687, "tags": {"addr:city": "Bhairab, Kishoregonj", "addr:postcode": "2350", "addr:street": "Bangabandhu Sharani", "amenity": "bank", "name": "NRBC Bank Limited"}}, {"type": "node", "id": 7388254551, "lat": 24.046787, "lon": 90.9864304, "tags": {"addr:city": "Bhairab, Kishoregonj", "addr:postcode": "2350", "addr:street": "Bangabandhu Sharani", "amenity": "bank", "name": "Brack Bank Limted"}}, {"type": "node", "id": 7388254553, "lat": 24.0470981, "lon": 90.9848962, "tags": {"addr:city": "Bhairab, Kishoregonj", "addr:postcode": "2350", "amenity": "school", "name": "Bhairab Ideal School", "name:bn": "\u09ad\u09c8\u09b0\u09ac \u0986\u0987\u09a1\u09bf\u09df\u09be\u09b2 \u09b8\u09cd\u0995\u09c1\u09b2"}}, {"type": "node", "id": 7388254554, "lat": 24.0472255, "lon": 90.986248, "tags": {"addr:city": "Bhairab, Kishoregonj", "addr:postcode": "2350", "addr:street": "Bangabandhu Sharani", "name": "VIP Plaza", "shop": "mall"}}, {"type": "node", "id": 7388254555, "lat": 24.0450038, "lon": 90.9865001, "tags": {"amenity": "atm", "cash_in": "no", "operator": "Dutch Bangla Bank ATM (Fast Track)"}}, {"type": "node", "id": 7396226371, "lat": 24.1077727, "lon": 90.7685537, "tags": {"addr:city": "Narsingdi", "addr:postcode": "1651", "addr:street": "\u0986\u09dc\u09be\u0987\u0986\u09a8\u09bf-\u09ae\u09bf\u09b0\u09aa\u09be\u09dc\u09be \u09b0\u09cb\u09a1", "currency:BDT": "yes", "name": "Shafik Veritise Store(\u09b6\u09ab\u09bf\u0995 \u09ad\u09c7\u09b0\u09be\u0987\u099f\u09bf\u099c \u09b8\u09cd\u099f\u09cb\u09b0)", "opening_hours": "10:00-22:00", "operator": "Md Shafik Bhuiyan", "payment:cash": "yes", "shop": "greengrocer"}}, {"type": "node", "id": 7402633240, "lat": 24.0912915, "lon": 90.9748563, "tags": {"addr:city": "Bhairab", "addr:housenumber": "Madhyerchar", "addr:postcode": "2350", "addr:street": "\u09ae\u09af\u09bc\u09ae\u09a8\u09b8\u09bf\u0982\u09b9-\u09ad\u09c8\u09b0\u09ac \u09b8\u09a1\u09bc\u0995", "name": "Chowdhory Market", "opening_hours": "Mo-Su 09:00-12:00", "payment:cash": "yes", "shop": "supermarket"}}, {"type": "node", "id": 7404695897, "lat": 24.1998885, "lon": 90.7790615}, {"type": "node", "id": 7464687556, "lat": 24.2003965, "lon": 90.7788088, "tags": {"addr:city": "Barachapa", "addr:postcode": "1652", "addr:street": "Barachapa Road", "amenity": "school", "name": "Barachapa ML High School Play Ground"}}, {"type": "node", "id": 7464695316, "lat": 24.2012186, "lon": 90.7801231, "tags": {"addr:city": "Barachapa", "addr:postcode": "1652", "addr:street": "Barachapa Road", "amenity": "marketplace", "name": "Barachapa Bazar", "opening_hours": "Mo-Sa 08:00-18:00", "opening_hours:covid19": "Mo-Sa 14:00-17:00"}}, {"type": "node", "id": 7464698798, "lat": 24.1998081, "lon": 90.7820811, "tags": {"addr:city": "Barachapa", "addr:postcode": "1652", "addr:street": "Barachapa Road", "amenity": "college", "name": "Barachapa Degree College Play Ground"}}, {"type": "node", "id": 7464797018, "lat": 24.1992544, "lon": 90.7842937, "tags": {"addr:city": "Paikan", "addr:postcode": "1652", "addr:street": "Barachapa Road", "amenity": "marketplace", "name": "Paikan Bazar", "opening_hours": "Mo-Fr 09:00-17:00", "opening_hours:covid19": "restricted"}}, {"type": "node", "id": 7470499956, "lat": 24.2009104, "lon": 90.7785367}, {"type": "node", "id": 7470611700, "lat": 24.2013191, "lon": 90.7799373}, {"type": "node", "id": 7470611701, "lat": 24.20139, "lon": 90.7799454}, {"type": "node", "id": 7470611702, "lat": 24.2013239, "lon": 90.780691}, {"type": "node", "id": 7470611703, "lat": 24.2010475, "lon": 90.7806588}, {"type": "node", "id": 7470611704, "lat": 24.2010793, "lon": 90.7803396}, {"type": "node", "id": 7470611705, "lat": 24.2010891, "lon": 90.7801278}, {"type": "node", "id": 7470611706, "lat": 24.2011282, "lon": 90.7798944}, {"type": "node", "id": 7470616809, "lat": 24.2006854, "lon": 90.7791327}, {"type": "node", "id": 7470616810, "lat": 24.2005045, "lon": 90.7794403}, {"type": "node", "id": 7470616811, "lat": 24.200056, "lon": 90.7791635}, {"type": "node", "id": 7470616812, "lat": 24.1998073, "lon": 90.779009}, {"type": "node", "id": 7470616813, "lat": 24.2001912, "lon": 90.7784004}, {"type": "node", "id": 7470616814, "lat": 24.2002793, "lon": 90.7780759}, {"type": "node", "id": 7470616815, "lat": 24.200771, "lon": 90.778328}, {"type": "node", "id": 7470616816, "lat": 24.2008718, "lon": 90.7783891}, {"type": "node", "id": 7470719716, "lat": 24.2001776, "lon": 90.7820888}, {"type": "node", "id": 7470719717, "lat": 24.1998987, "lon": 90.7825126}, {"type": "node", "id": 7470719718, "lat": 24.1993311, "lon": 90.7821747}, {"type": "node", "id": 7470719719, "lat": 24.199517, "lon": 90.7817616}, {"type": "node", "id": 7470719720, "lat": 24.1996736, "lon": 90.7813646}, {"type": "node", "id": 7470719721, "lat": 24.200021, "lon": 90.7816114}, {"type": "node", "id": 7470719722, "lat": 24.1998987, "lon": 90.7819172}, {"type": "node", "id": 7470734769, "lat": 24.1951622, "lon": 90.7779502}, {"type": "node", "id": 7470734770, "lat": 24.1948637, "lon": 90.7779636}, {"type": "node", "id": 7470734771, "lat": 24.1949102, "lon": 90.7774969}, {"type": "node", "id": 7470734772, "lat": 24.1952062, "lon": 90.7775559}, {"type": "node", "id": 7470777643, "lat": 24.1952549, "lon": 90.7773}, {"type": "node", "id": 7470777644, "lat": 24.1949412, "lon": 90.7772327}, {"type": "node", "id": 7470777661, "lat": 24.1949934, "lon": 90.7774298}, {"type": "node", "id": 7470777662, "lat": 24.1949897, "lon": 90.7774593}, {"type": "node", "id": 7470777663, "lat": 24.1949591, "lon": 90.777454}, {"type": "node", "id": 7470777664, "lat": 24.1949616, "lon": 90.7774258}, {"type": "node", "id": 8124656790, "lat": 24.0516511, "lon": 90.8729022, "tags": {"addr:city": "Dhaka - Sylhet Hwy", "addr:housenumber": "Baroicha Collage Road", "addr:postcode": "1640", "addr:street": "\u09a2\u09be\u0995\u09be-\u09b8\u09bf\u09b2\u09c7\u099f \u09ae\u09b9\u09be\u09b8\u09a1\u09bc\u0995", "air_conditioning": "yes", "amenity": "restaurant", "capacity": "50", "cuisine": "coffee_shop", "name:bn": "\u0986\u09b0\u0993\u09af\u09bc\u09be \u0995\u09ab\u09bf \u09b9\u09be\u0989\u099c", "opening_hours": "10:00-22:00", "phone": "+8801751705494"}}, {"type": "node", "id": 8148324736, "lat": 24.113585, "lon": 90.8186023, "tags": {"amenity": "marketplace", "name": "Nager Bazar"}}, {"type": "node", "id": 8437268418, "lat": 24.324487, "lon": 90.9338086, "tags": {"amenity": "restaurant", "name": "Setu Hotel"}}, {"type": "node", "id": 8437270328, "lat": 24.3244454, "lon": 90.9336795, "tags": {"amenity": "restaurant", "name": "Allahr Daan Hotel"}}, {"type": "node", "id": 8437311956, "lat": 24.3114706, "lon": 90.9158399, "tags": {"amenity": "marketplace", "name": "Rudarpudda Bazar"}}, {"type": "node", "id": 8437360450, "lat": 24.3271084, "lon": 90.8918542, "tags": {"amenity": "marketplace", "name": "Korgao Bazar"}}, {"type": "node", "id": 8926476808, "lat": 24.1581027, "lon": 90.8099778, "tags": {"name": "Poradia Bazar Fish Market", "shop": "supermarket"}}, {"type": "node", "id": 8928221359, "lat": 24.1579518, "lon": 90.8096653, "tags": {"name": "Poradia Bazar, Narsingdi", "shop": "supermarket"}}, {"type": "node", "id": 8928223676, "lat": 24.1596923, "lon": 90.8095707, "tags": {"amenity": "bank", "branch": "Poradia Bazar Agent Banking", "drive_through": "no", "name": "Islami Bank Bangladesh Limited - Poradia Bazar Agent Banking Outlet"}}, {"type": "node", "id": 9167935005, "lat": 24.2087873, "lon": 91.0878085}, {"type": "node", "id": 9167935006, "lat": 24.2094056, "lon": 91.0876755}, {"type": "node", "id": 9167935007, "lat": 24.2093893, "lon": 91.0880663}, {"type": "node", "id": 9167935008, "lat": 24.2090501, "lon": 91.0874049}, {"type": "node", "id": 9167935009, "lat": 24.2081614, "lon": 91.0871619}, {"type": "node", "id": 9167935010, "lat": 24.2081295, "lon": 91.0873259}, {"type": "node", "id": 9167935011, "lat": 24.2083739, "lon": 91.0874264}, {"type": "node", "id": 9167935012, "lat": 24.2084217, "lon": 91.0875396}, {"type": "node", "id": 9167935013, "lat": 24.2086687, "lon": 91.0876593}, {"type": "node", "id": 9167935014, "lat": 24.2088028, "lon": 91.0880671}, {"type": "node", "id": 9692137611, "lat": 24.1070293, "lon": 90.851371, "tags": {"addr:street": "Poradia-Belabo Road", "amenity": "hospital", "emergency": "yes", "healthcare": "hospital", "healthcare:speciality": "general", "name": "Belabo Upazila Health Complex"}}, {"type": "node", "id": 9706920635, "lat": 24.0272763, "lon": 90.9566383, "tags": {"amenity": "school", "office": "educational_institution"}}, {"type": "node", "id": 9706920636, "lat": 24.0406211, "lon": 90.9553422, "tags": {"amenity": "school", "office": "educational_institution"}}, {"type": "node", "id": 9706920637, "lat": 24.0537737, "lon": 90.9361891, "tags": {"amenity": "school", "office": "educational_institution"}}, {"type": "node", "id": 9706920638, "lat": 24.0536532, "lon": 90.9920813, "tags": {"amenity": "school", "office": "educational_institution"}}, {"type": "node", "id": 9706920639, "lat": 24.0721844, "lon": 90.9651555, "tags": {"amenity": "school", "office": "educational_institution"}}, {"type": "node", "id": 9988224496, "lat": 24.0439399, "lon": 90.9879535, "tags": {"addr:city": "Bhairab, Kishoregonj", "addr:postcode": "2350", "addr:street": "Chobigor Road", "air_conditioning": "yes", "clothes": "men", "currency:BDT": "yes", "name": "Khandani Express (\u0996\u09be\u09a8\u09a6\u09be\u09a8\u09c0 \u098f\u0995\u09cd\u09b8\u09aa\u09cd\u09b0\u09c7\u09b8)", "payment:bikash": "yes", "payment:cash": "yes", "phone": "01707918600", "shop": "clothes"}}, {"type": "node", "id": 10032215167, "lat": 24.0567316, "lon": 90.9743743}, {"type": "node", "id": 10032215168, "lat": 24.0570051, "lon": 90.9744805}, {"type": "node", "id": 10032215169, "lat": 24.0570633, "lon": 90.9743007}, {"type": "node", "id": 11027725115, "lat": 24.1585373, "lon": 90.8075692}, {"type": "node", "id": 11027725116, "lat": 24.1584841, "lon": 90.8075676}, {"type": "node", "id": 11027725117, "lat": 24.1584806, "lon": 90.8078928}, {"type": "node", "id": 11027725118, "lat": 24.1586787, "lon": 90.8079068}, {"type": "node", "id": 11027725119, "lat": 24.1586787, "lon": 90.8078625}, {"type": "node", "id": 11027725120, "lat": 24.158634, "lon": 90.807755}, {"type": "node", "id": 11807569751, "lat": 24.2421095, "lon": 90.9035838, "tags": {"addr:city": "Kishoreganj", "addr:housenumber": "Ganpur", "addr:place": "Ganpur", "addr:postcode": "2337", "amenity": "pharmacy", "healthcare": "pharmacy", "name": "Mahin Poultry Feed And Medicine Corner", "name:bn": "\u09ae\u09be\u09b9\u09bf\u09a8 \u09aa\u09cb\u09b2\u09cd\u099f\u09cd\u09b0\u09bf \u09ab\u09bf\u09a1 \u098f\u09a8\u09cd\u09a1 \u09ae\u09c7\u09a1\u09bf\u09b8\u09bf\u09a8 \u0995\u09b0\u09cd\u09a3\u09be\u09b0", "opening_hours": "Mo-Su 08:00-23:00"}}, {"type": "node", "id": 11833657348, "lat": 24.0689289, "lon": 90.7645537}, {"type": "node", "id": 11833657349, "lat": 24.0684053, "lon": 90.7645873}, {"type": "node", "id": 11833657350, "lat": 24.0684328, "lon": 90.7648173}, {"type": "node", "id": 11833657351, "lat": 24.0685524, "lon": 90.7648103}, {"type": "node", "id": 11833657352, "lat": 24.0685605, "lon": 90.7647129}, {"type": "node", "id": 11833657353, "lat": 24.0686283, "lon": 90.7647218}, {"type": "node", "id": 11833657354, "lat": 24.0686283, "lon": 90.7648067}, {"type": "node", "id": 11833657355, "lat": 24.0687867, "lon": 90.7648032}, {"type": "node", "id": 11833657356, "lat": 24.0687899, "lon": 90.7647041}, {"type": "node", "id": 11833657357, "lat": 24.06884, "lon": 90.7647005}, {"type": "node", "id": 11833657358, "lat": 24.0688497, "lon": 90.7647642}, {"type": "node", "id": 11833657359, "lat": 24.0689466, "lon": 90.764766}, {"type": "node", "id": 12056719866, "lat": 24.1586216, "lon": 90.8088345}, {"type": "node", "id": 12056719867, "lat": 24.1586265, "lon": 90.8091416}, {"type": "node", "id": 12056719868, "lat": 24.1588186, "lon": 90.8091302}, {"type": "node", "id": 12056719869, "lat": 24.1588547, "lon": 90.8091242}, {"type": "node", "id": 12056719870, "lat": 24.158848, "lon": 90.808868}, {"type": "node", "id": 12056719871, "lat": 24.1587733, "lon": 90.8088674}, {"type": "node", "id": 12056719872, "lat": 24.158769, "lon": 90.8088231}, {"type": "node", "id": 12056759201, "lat": 24.1581402, "lon": 90.8098594}, {"type": "node", "id": 12056759202, "lat": 24.1581512, "lon": 90.8100116}, {"type": "node", "id": 12056759203, "lat": 24.1580277, "lon": 90.8100277}, {"type": "node", "id": 12056759204, "lat": 24.1580179, "lon": 90.8098674}, {"type": "node", "id": 12056759424, "lat": 24.1578665, "lon": 90.8087755}, {"type": "node", "id": 12056759425, "lat": 24.1578657, "lon": 90.8089527}, {"type": "node", "id": 12056759426, "lat": 24.1577476, "lon": 90.8089521}, {"type": "node", "id": 12056759427, "lat": 24.1577486, "lon": 90.8087155}, {"type": "node", "id": 12056759428, "lat": 24.1579651, "lon": 90.8087166}, {"type": "node", "id": 12056759429, "lat": 24.1579641, "lon": 90.8089497}, {"type": "node", "id": 12056759430, "lat": 24.1578883, "lon": 90.8089493}, {"type": "node", "id": 12056759431, "lat": 24.1578891, "lon": 90.8087756}, {"type": "node", "id": 13066251917, "lat": 24.1169171, "lon": 90.8812367, "tags": {"addr:city": "kuliarchar", "addr:street": "khidirpur chwok bazar", "amenity": "hospital", "healthcare": "hospital", "healthcare:speciality": "pharmacology", "name": "\u09b9\u09be\u09ac\u09bf\u09ac \u09ae\u09c7\u09a1\u09bf\u0995\u09c7\u09b2 \u09b9\u09b2 \u098f\u09a8\u09cd\u09a1 \u099a\u09bf\u0995\u09bf\u09ce\u09b8\u09be\u09b2\u09af\u09bc", "operator": "\u09a1\u09be\u0983 \u09b9\u09be\u09ac\u09bf\u09ac\u09c1\u09b0 \u09b0\u09b9\u09ae\u09be\u09a8", "operator:type": "pharmacy"}}, {"type": "node", "id": 13119658951, "lat": 24.0567899, "lon": 90.9741945}, {"type": "way", "id": 440157496, "nodes": [4378774803, 4378774811, 4378774805, 4378774798, 4378774803], "tags": {"amenity": "cafe", "building": "yes", "name": "Apscl \u0995\u09cd\u09b2\u09be\u09ac", "name:en": "Apscl Club", "story": "2"}}, {"type": "way", "id": 440157501, "nodes": [4378774974, 4378774977, 4378774987, 4378775097, 4378775090, 4378775094, 4378775105, 4378775103, 4378775100, 4378775091, 4378775098, 4378775093, 4378774974], "tags": {"amenity": "school", "building": "yes", "contact:facebook": "https://www.facebook.com/atbkhs/", "email": "hmapscl@yahoo.com", "fixme": "Survey opening and closing hours, was \"8\".", "level": "2", "name": "\u0986\u09b6\u09c1\u0997\u099e\u09cd\u099c \u09a4\u09be\u09aa \u09ac\u09bf\u09a6\u09cd\u09af\u09c1\u09ce \u0995\u09c7\u09a8\u09cd\u09a6\u09cd\u09b0 \u0989\u099a\u09cd\u099a \u09ac\u09bf\u09a6\u09cd\u09af\u09be\u09b2\u09df", "name:en": "Ashuganj Tap Bidyut Kendra High School", "operator": "Half Goverment", "phone": "+880 017 17880786", "website": "http://www.apsclschool.edu.bd/default.aspx?TopMenu=Home&SubMenu=Description", "wheelchair": "no"}}, {"type": "way", "id": 483431440, "nodes": [4761671938, 4761671939, 4761671940, 4761671941, 4773449180, 4761671938], "tags": {"amenity": "marketplace", "name": "Chatalpar Bazar"}}, {"type": "way", "id": 483453880, "nodes": [4761892310, 4761892311, 4761892312, 4761892313, 4761892310], "tags": {"amenity": "college", "name": "Aruail College"}}, {"type": "way", "id": 483453883, "nodes": [4761892341, 4761892342, 4761892343, 4761892344, 4761892345, 4761892341], "tags": {"amenity": "marketplace", "building": "yes", "name": "Aruail Bazar"}}, {"type": "way", "id": 484594589, "nodes": [4773448907, 4773448908, 4773448909, 4773448910, 4773448907], "tags": {"addr:street": "Bhalakut Rd", "amenity": "marketplace", "building": "yes", "name": "Bhalakut Market"}}, {"type": "way", "id": 484594592, "nodes": [4773448954, 4773448955, 4773448956, 4773448957, 4773448954], "tags": {"amenity": "marketplace", "building": "yes", "name": "Kandipara Bazar"}}, {"type": "way", "id": 484594596, "nodes": [4773449139, 9167935006, 9167935007, 4773449140, 4773449141, 9167935014, 9167935005, 9167935013, 9167935012, 9167935011, 9167935010, 9167935009, 9167935008, 4773449142, 4773449139], "tags": {"amenity": "marketplace", "name": "Chowk Bazar"}}, {"type": "way", "id": 533309174, "nodes": [5174152484, 5174152485, 5174152486, 5174152487, 5174152488, 5174152489, 5174152484], "tags": {"addr:city": "Ashuganj Toll Plaza, Ashuganj", "amenity": "marketplace", "building": "yes", "name": "\u09b9\u09be\u099f \u09ac\u09be\u099c\u09be\u09b0", "name:en": "Hut-Bazar"}}, {"type": "way", "id": 533319452, "nodes": [5174258005, 5174258006, 5174258007, 5174258008, 5174258009, 6817035419, 6817035417, 6817035416, 6817035418, 6817035415, 6817035413, 6817035412, 6817035414, 6817035411, 6817035410, 6817035409, 5174258005], "tags": {"addr:city": "Dhaka-Sylhet Highway", "amenity": "marketplace", "building": "yes", "name": "\u09b9\u09c1\u09ae\u09be\u09af\u09bc\u09c1\u09a8 \u0995\u09ac\u09bf\u09b0 \u0985\u09cd\u09af\u09be\u09b8\u09c7\u099f \u09b2\u09bf\u09ae\u09bf\u099f\u09c7\u09a1", "name:en": "Humayun Kabir Asset Ltd"}}, {"type": "way", "id": 533327785, "nodes": [5174322578, 5174322579, 5174322580, 5174322581, 5174322582, 5174341690, 5174322583, 5174322578], "tags": {"addr:city": "Dhaka-Sylhet Highway", "amenity": "restaurant", "building": "yes", "name": "\u09b8\u09b0\u09cd\u09a6\u09be\u09b0 \u09b9\u09cb\u099f\u09c7\u09b2 \u09b0\u09c7\u09b8\u09cd\u099f\u09c1\u09b0\u09c7\u09a8\u09cd\u099f \u098f\u09a8\u09cd\u09a1 \u09b8\u09c1\u0987\u099f", "name:en": "Sordar Hotel Restaurant and Sweets"}}, {"type": "way", "id": 533332504, "nodes": [5174357051, 5174357052, 5174357053, 5174357054, 5174357051], "tags": {"amenity": "bus_station", "building": "yes", "name": "\u09ad\u09c8\u09b0\u09ac \u09ac\u09be\u09b8 \u099f\u09be\u09b0\u09ae\u09bf\u09a8\u09be\u09b2"}}, {"type": "way", "id": 533504783, "nodes": [5175728504, 5175728505, 5175728506, 5175728507, 5175728504], "tags": {"addr:city": "Dhaka - Sylhet Hwy, Jogonnath Pur", "amenity": "hospital", "healthcare": "hospital", "name": "Abedin Hospital (Pvt.)"}}, {"type": "way", "id": 533505087, "nodes": [5175731763, 5175731764, 5758201259, 5758201258, 5758201261, 5758201260, 5175731766, 5175731767, 5175731768, 5175731769, 5175731770, 5175731771, 5175731772, 5175731773, 5175731763]}, {"type": "way", "id": 533516536, "nodes": [5175838614, 5175838615, 5175838616, 5175838617, 5175838618, 5175838619, 5175838614], "tags": {"addr:city": "dhaka-Sylhet Hwy", "amenity": "bank", "building": "yes", "name": "Grameen Bank Limited."}}, {"type": "way", "id": 533531479, "nodes": [5175975475, 5175975476, 5175975477, 5175975478, 5175975475], "tags": {"addr:city": "Dhaka - Sylhet Hwy", "amenity": "bank", "building": "yes", "name": "Bangladesh Krishi Bank Ltd."}}, {"type": "way", "id": 533532025, "nodes": [5175973829, 5175973830, 5175973831, 5175973832, 5175973829], "tags": {"addr:city": "Dhaka - Sylhet Hwy", "amenity": "cafe", "building": "yes", "name": "Modina Store"}}, {"type": "way", "id": 533533396, "nodes": [5175995860, 5175995861, 5175995862, 5175995863, 5175995860], "tags": {"addr:city": "Dhaka - Sylhet Hwy", "amenity": "school", "name": "Sabuj Pahar High School"}}, {"type": "way", "id": 595582799, "nodes": [5675992653, 5675992652, 5675992646, 5675992651, 5675992650, 5675992648, 5675992647, 5675992649, 5675992653], "tags": {"building": "yes", "name": "Jela parishad Super Market", "shop": "supermarket"}}, {"type": "way", "id": 607637616, "nodes": [5758201595, 5758201594, 5758201593, 5758201592, 5758201595], "tags": {"building": "yes"}}, {"type": "way", "id": 607637617, "nodes": [5758201599, 5758201598, 5758201597, 5758201596, 5758201599], "tags": {"building": "yes"}}, {"type": "way", "id": 607637618, "nodes": [5758201603, 5758201600, 5758201601, 5758201602, 5758201603], "tags": {"building": "yes"}}, {"type": "way", "id": 607637619, "nodes": [5758201607, 5758201606, 5758201605, 5758201604, 5758201607], "tags": {"building": "yes"}}, {"type": "way", "id": 607637620, "nodes": [5758201611, 5758201608, 5758201609, 5758201610, 5758201611], "tags": {"building": "yes"}}, {"type": "way", "id": 607637621, "nodes": [5758201615, 5758201612, 5758201613, 5758201614, 5758201615], "tags": {"building": "yes"}}, {"type": "way", "id": 607637622, "nodes": [5758201619, 5758201618, 5758201617, 5758201616, 5758201619], "tags": {"building": "yes"}}, {"type": "way", "id": 607637623, "nodes": [5758201823, 5758201822, 5758201821, 5758201620, 5758201823], "tags": {"building": "yes"}}, {"type": "way", "id": 607637624, "nodes": [5758201827, 5758201826, 5758201825, 5758201824, 5758201827], "tags": {"building": "yes"}}, {"type": "way", "id": 607637625, "nodes": [5758201831, 5758201830, 5758201829, 5758201828, 5758201831], "tags": {"building": "yes"}}, {"type": "way", "id": 607637626, "nodes": [5758201835, 5758201832, 5758201833, 5758201834, 5758201835], "tags": {"building": "yes"}}, {"type": "way", "id": 607637627, "nodes": [5758201841, 5758201840, 5758201839, 5758201837, 5758201836, 5758201838, 5758201841], "tags": {"building": "yes"}}, {"type": "way", "id": 607637628, "nodes": [5758201846, 5758201845, 5758201844, 5758201843, 5758201842, 5758201846], "tags": {"building": "yes"}}, {"type": "way", "id": 607637629, "nodes": [5758201850, 5758201847, 5758201848, 5758201849, 5758201850], "tags": {"building": "yes"}}, {"type": "way", "id": 607637631, "nodes": [5758201855, 5758201852, 5758201853, 5758201854, 5758201851, 5758201855], "tags": {"building": "yes"}}, {"type": "way", "id": 607637633, "nodes": [5758201859, 5758201858, 5758201857, 5758201856, 5758201859], "tags": {"building": "yes"}}, {"type": "way", "id": 607637634, "nodes": [5758201863, 5758201862, 5758201861, 5758201860, 5758201863], "tags": {"building": "yes"}}, {"type": "way", "id": 607637635, "nodes": [5758201867, 5758201866, 5758201865, 5758201864, 5758201867], "tags": {"building": "yes"}}, {"type": "way", "id": 607637636, "nodes": [5758201871, 5758201870, 5758201869, 5758201868, 5758201871], "tags": {"building": "yes"}}, {"type": "way", "id": 607637637, "nodes": [5758201875, 5758201872, 5758201873, 5758201874, 5758201875], "tags": {"building": "yes"}}, {"type": "way", "id": 607637638, "nodes": [5758201884, 5758201883, 5758201882, 5758201881, 5758201884], "tags": {"building": "yes"}}, {"type": "way", "id": 607637639, "nodes": [5758201888, 5758201885, 5758201886, 5758201887, 5758201888], "tags": {"building": "yes"}}, {"type": "way", "id": 607637640, "nodes": [5758201892, 5758201889, 5758201890, 5758201891, 5758201892], "tags": {"building": "yes"}}, {"type": "way", "id": 607637641, "nodes": [5758201896, 5758201893, 5758201894, 5758201895, 5758201896], "tags": {"building": "yes"}}, {"type": "way", "id": 607637642, "nodes": [5758201900, 5758201897, 5758201898, 5758201899, 5758201900], "tags": {"building": "yes"}}, {"type": "way", "id": 607637643, "nodes": [5758201904, 5758201901, 5758201902, 5758201903, 5758201904], "tags": {"building": "yes"}}, {"type": "way", "id": 607637644, "nodes": [5758201908, 5758201905, 5758201906, 5758201907, 5758201908], "tags": {"building": "yes"}}, {"type": "way", "id": 607637645, "nodes": [5758201912, 5758201909, 5758201910, 5758201911, 5758201912], "tags": {"building": "yes"}}, {"type": "way", "id": 607637646, "nodes": [5758201916, 5758201913, 5758201914, 5758201915, 5758201916], "tags": {"building": "yes"}}, {"type": "way", "id": 607637647, "nodes": [5758201920, 5758201917, 5758201918, 5758201919, 5758201920], "tags": {"building": "yes"}}, {"type": "way", "id": 607637648, "nodes": [5758202024, 5758202021, 5758202022, 5758202023, 5758202024], "tags": {"building": "yes"}}, {"type": "way", "id": 607637649, "nodes": [5758202028, 5758202025, 5758202026, 5758202027, 5758202028], "tags": {"building": "yes"}}, {"type": "way", "id": 607637650, "nodes": [5758202032, 5758201880, 5758202029, 5758202031, 5758202032], "tags": {"building": "yes"}}, {"type": "way", "id": 607637651, "nodes": [5758202036, 5758202033, 5758202034, 5758201877, 5758202035, 5758202036], "tags": {"building": "yes"}}, {"type": "way", "id": 607637652, "nodes": [5758202040, 5758202037, 5758202038, 5758202039, 5758201876, 5758202040], "tags": {"building": "yes"}}, {"type": "way", "id": 607637653, "nodes": [5758202044, 5758202041, 5758202042, 5758202043, 5758202044], "tags": {"building": "yes"}}, {"type": "way", "id": 607637654, "nodes": [5758202048, 5758202045, 5758202046, 5758202047, 5758202048], "tags": {"building": "yes"}}, {"type": "way", "id": 607637655, "nodes": [5758202052, 5758202051, 5758202050, 5758202049, 5758202052], "tags": {"building": "yes"}}, {"type": "way", "id": 608918850, "nodes": [5768027105, 5768027106, 5768027107, 5768027108, 5768034606, 5768027109, 5768027105], "tags": {"amenity": "marketplace", "name": "Jongli Shibpur Bazar"}}, {"type": "way", "id": 645607642, "nodes": [6068395640, 6068395637, 6068395638, 6068395639, 6068395640], "tags": {"building": "yes", "name": "\u0986\u09b6\u09c1\u0997\u099e\u09cd\u099c \u09ac\u09bf\u09a6\u09cd\u09af\u09c1\u09ce \u0995\u09c7\u09a8\u09cd\u09a6\u09cd\u09b0 \u09ae\u09be\u09b0\u09cd\u0995\u09c7\u099f", "name:en": "apscl MAKKET", "shop": "mall"}}, {"type": "way", "id": 656888387, "nodes": [6152945586, 6152945492, 6152945585, 6152945084, 6152945081, 6152945080, 6152945079, 6152945082, 6152945077, 6152945076, 6152945075, 6152945078, 6152945074, 6152945072, 6152945071, 6152945073, 6152945083, 6152945586], "tags": {"amenity": "hospital", "building": "yes", "name": "Johurul Islam Medical College and Hospital"}}, {"type": "way", "id": 658137456, "nodes": [6163500162, 6163500161, 6163500160, 6163500159, 6163500162], "tags": {"amenity": "bus_station", "name": "Kuliarchar Bus Station"}}, {"type": "way", "id": 680417654, "nodes": [6370926914, 6370926913, 6370926912, 6370926911, 6370926910, 6370995592, 6370926909, 6370926908, 6370926907, 6370926906, 6370926905, 6370926914], "tags": {"amenity": "school", "name": "kalipur high school"}}, {"type": "way", "id": 680417658, "nodes": [6370926931, 6370926930, 6370926929, 6370926928, 6370926931], "tags": {"amenity": "school", "name": "kalipur madrasa"}}, {"type": "way", "id": 756853773, "nodes": [7068978015, 7068978016, 7068978017, 7068978018, 7068978019, 7068978015], "tags": {"addr:city": "Narsingdi", "addr:postcode": "1640", "addr:street": "Poradia Bazar, Belabo", "addr:street:type": "Poradia, Belabo", "building": "commercial", "building:levels": "5"}}, {"type": "way", "id": 756889667, "nodes": [7069255441, 7069255444, 7069255443, 7077819619, 7069219474, 7069219473, 7077817755, 7069274965, 7077817754, 7069274966, 7069274967, 7069274971, 7069274968, 7069255449, 7069255448, 7069255461, 7069255462, 7069255465, 7069255466, 7069224636, 7069224637, 7069274969, 7069274970, 7069255441], "tags": {"addr:city": "Narsingdi", "addr:postcode": "1640", "addr:street": "Poradia, Belabo", "amenity": "school", "name": "Poradia School Playground"}}, {"type": "way", "id": 756943887, "nodes": [7069769156, 7069769157, 7069766324, 7069766325, 7069769158, 7069769159, 7069769156], "tags": {"addr:city": "Narsingdi", "addr:postcode": "1640", "addr:street": "chandipara, belabo", "amenity": "school", "name": "Chandipara Girls' High School Playground", "operator": "Chandipara Girls' High School", "operator:type": "School"}}, {"type": "way", "id": 758135339, "nodes": [7080044354, 7080044355, 7080044356, 7080044357, 7080044358, 7080044359, 7080044350, 7080044351, 7191128067, 7080044361, 7080044362, 7080044354], "tags": {"amenity": "university", "education": "university", "name": "Poradia Washim Uddin Khan University College", "name:bn": "\u09aa\u09cb\u09a1\u09bc\u09be\u09a6\u09bf\u09af\u09bc\u09be \u0993\u09af\u09bc\u09be\u09b6\u09bf\u09ae \u0989\u09a6\u09cd\u09a6\u09bf\u09a8 \u0996\u09be\u09a8 \u09ac\u09bf\u09b6\u09cd\u09ac\u09ac\u09bf\u09a6\u09cd\u09af\u09be\u09b2\u09af\u09bc \u0995\u09b2\u09c7\u099c", "name:en": "Poradia Washim Uddin Khan Degree College"}}, {"type": "way", "id": 789674083, "nodes": [7383133646, 7383133647, 7383109002, 7383109001, 7383133646], "tags": {"addr:city": "Narsingdi", "addr:postcode": "1651", "addr:street": "Gutashia Union Porishodh Road", "amenity": "school", "denomination": "\u09b8\u0995\u09b2_\u0997\u09cb\u09a4\u09cd\u09b0\u09c7\u09b0", "name": "\u099a\u09c1\u09b2\u09be \u09b8\u09b0\u0995\u09be\u09b0\u09c0 \u09aa\u09cd\u09b0\u09be\u09a5\u09ae\u09c0\u0995 \u09ac\u09bf\u09a6\u09cd\u09af\u09be\u09b2\u09df", "operator": "\u09b8\u09b0\u0995\u09be\u09b0", "operator:type": "government", "religion": "\u09b8\u0995\u09b2_\u09a7\u09b0\u09cd\u09ae"}}, {"type": "way", "id": 798799467, "nodes": [7470611700, 7470611701, 7470611702, 7470611703, 7470611704, 7470611705, 7470611706, 7470611700], "tags": {"amenity": "marketplace", "name": "Barachapa Bazar"}}, {"type": "way", "id": 798801131, "nodes": [7470499956, 7470616809, 7470616810, 7470616811, 7404695897, 7470616812, 7470616813, 7470616814, 7470616815, 7470616816, 7470499956], "tags": {"amenity": "school", "name": "Barachapa ML High School"}}, {"type": "way", "id": 798811054, "nodes": [7470719716, 7470719717, 7470719718, 7470719719, 7470719720, 7470719721, 7470719722, 7470719716], "tags": {"amenity": "college", "education": "college", "name": "Barachapa Degree College"}}, {"type": "way", "id": 798812786, "nodes": [7470734769, 7470734770, 7470734771, 7470734772, 7470734769], "tags": {"amenity": "school", "education": "school", "name": "Barachapa Girls High School"}}, {"type": "way", "id": 798814324, "nodes": [7470734772, 7470777643, 7470777644, 7470734771, 7470734772], "tags": {"amenity": "school", "education": "school", "name": "Barachapa Girls Gov. Prinary School"}}, {"type": "way", "id": 798814329, "nodes": [7470777661, 7470777662, 7470777663, 7470777664, 7470777661], "tags": {"amenity": "fast_food", "building": "yes", "cuisine": "chicken"}}, {"type": "way", "id": 1095463248, "nodes": [10032215169, 10032215168, 10032215167, 13119658951, 10032215169], "tags": {"amenity": "restaurant", "building": "yes", "name": "Jannat Restaurant and Resort", "source": "Field Data, Esri World Imagery"}}, {"type": "way", "id": 1187600437, "nodes": [11027725115, 11027725116, 11027725117, 11027725118, 11027725119, 11027725120, 11027725115], "tags": {"amenity": "marketplace"}}, {"type": "way", "id": 1274491734, "nodes": [11833657348, 11833657349, 11833657350, 11833657351, 11833657352, 11833657353, 11833657354, 11833657355, 11833657356, 11833657357, 11833657358, 11833657359, 11833657348], "tags": {"amenity": "school"}}, {"type": "way", "id": 1301686770, "nodes": [12056719866, 12056719867, 12056719868, 12056719869, 12056719870, 12056719871, 12056719872, 12056719866], "tags": {"amenity": "clinic", "building": "yes", "healthcare": "clinic"}}, {"type": "way", "id": 1301692341, "nodes": [12056759201, 12056759202, 12056759203, 12056759204, 12056759201], "tags": {"amenity": "marketplace"}}, {"type": "way", "id": 1301692397, "nodes": [12056759424, 12056759425, 12056759426, 12056759427, 12056759428, 12056759429, 12056759430, 12056759431, 12056759424], "tags": {"amenity": "marketplace"}}, {"type": "relation", "id": 9140141, "members": [{"type": "way", "ref": 533505087, "role": "outer"}, {"type": "way", "ref": 607637620, "role": "inner"}, {"type": "way", "ref": 607637623, "role": "inner"}, {"type": "way", "ref": 607637621, "role": "inner"}, {"type": "way", "ref": 607637619, "role": "inner"}, {"type": "way", "ref": 607637622, "role": "inner"}, {"type": "way", "ref": 607637618, "role": "inner"}, {"type": "way", "ref": 607637617, "role": "inner"}, {"type": "way", "ref": 607637616, "role": "inner"}, {"type": "way", "ref": 607637624, "role": "inner"}, {"type": "way", "ref": 607637625, "role": "inner"}, {"type": "way", "ref": 607637626, "role": "inner"}, {"type": "way", "ref": 607637627, "role": "inner"}, {"type": "way", "ref": 607637628, "role": "inner"}, {"type": "way", "ref": 607637638, "role": "inner"}, {"type": "way", "ref": 607637639, "role": "inner"}, {"type": "way", "ref": 607637640, "role": "inner"}, {"type": "way", "ref": 607637641, "role": "inner"}, {"type": "way", "ref": 607637642, "role": "inner"}, {"type": "way", "ref": 607637643, "role": "inner"}, {"type": "way", "ref": 607637644, "role": "inner"}, {"type": "way", "ref": 607637635, "role": "inner"}, {"type": "way", "ref": 607637636, "role": "inner"}, {"type": "way", "ref": 607637634, "role": "inner"}, {"type": "way", "ref": 607637637, "role": "inner"}, {"type": "way", "ref": 607637650, "role": "inner"}, {"type": "way", "ref": 607637649, "role": "inner"}, {"type": "way", "ref": 607637648, "role": "inner"}, {"type": "way", "ref": 607637647, "role": "inner"}, {"type": "way", "ref": 607637646, "role": "inner"}, {"type": "way", "ref": 607637645, "role": "inner"}, {"type": "way", "ref": 607637655, "role": "inner"}, {"type": "way", "ref": 607637654, "role": "inner"}, {"type": "way", "ref": 607637653, "role": "inner"}, {"type": "way", "ref": 607637652, "role": "inner"}, {"type": "way", "ref": 607637651, "role": "inner"}, {"type": "way", "ref": 607637629, "role": "inner"}, {"type": "way", "ref": 607637631, "role": "inner"}, {"type": "way", "ref": 607637633, "role": "inner"}], "tags": {"addr:city": "Bhairab Bazar", "amenity": "marketplace", "name": "\u09b6\u09b9\u09c0\u09a6\u09c1\u09b2\u09cd\u09b2\u09be\u09b9\u09cd \u0995\u09be\u09df\u09b8\u09be\u09b0 \u09aa\u09be\u09a6\u09c1\u0995\u09be \u09ae\u09be\u09b0\u09cd\u0995\u09c7\u099f", "type": "multipolygon"}}]}