name,lat,lon,type,opening_hours
(আয়েশা মেডিসিন সেন্টার),23.824514,90.364002,pharmacy,
0point,23.742067,90.39213,shop_electronics,"Mo,We-Su 10:00-20:00; Tu off"
1 No.Shukkur Super Market,23.68869,90.514315,marketplace,
1 Price Store,23.806533,90.36234,shop_convenience,
1 To 100 Market,23.851541,90.414695,shop_gift,
1 to 100,23.719732,90.425306,shop_gift,
1 to 99,23.753122,90.378518,shop_gift,"Mo-Su,PH 08:00-10:00"
1 to 99,23.809565,90.372921,shop_gift,Mo-Su 08:00-23:00
1 to 99 Gift Shop,23.8438,90.38732,shop_gift,
1 to 99 Market ১ টু ৯৯ মার্কেট,23.846904,90.252072,shop_yes,
1-99,23.744529,90.44262,shop_variety_store,
1-99 Shop,23.698201,90.422592,shop_gift,
1-99 plus,23.754098,90.408245,shop_gift,
10 Storied Market (Banasree),23.75805,90.441209,shop_supermarket,
"100 no. Ghatakchar Govt. Primary School, Madaripur",23.172452,90.124972,school,
101 no Dignagar govt. Primary School,23.302332,90.004711,school,
11 no. Bazar,23.815132,90.369663,shop_supermarket,"PH,Mo-Su 06:00-23:00"
"110 no. Sonamukhi model government primary school, Vedorgonj - Shariatpur Rd",23.175652,90.360331,school,
12 no. west Maijpara Goverment Primary School,23.084454,90.170371,school,"08:30-12:30,15:30-20:00"
135 No. Salil Gobindapur Govt. Primary School,24.382969,89.837078,school,
13NO BRIDGE,23.869534,90.392836,fast_food,19:00-23:00
13No Bus Station,23.705951,90.424065,bus_station,
"140 Harun Or Rashid Govt. Primary School, Primary School, Madaripur",23.181135,90.235554,school,
158,23.741581,90.39166,building_commercial,
163 No Beluba Aditto Pasha Govt Primary School,24.292649,90.688368,school,
17 No Chitar Bazar Govt Primary School,23.431742,89.71275,school,
17 No New Islamia Government Primary School,23.720098,90.38063,school,
"17 South Crockchar Govt Primary School, Shibchar",23.277288,90.22385,school,
18 NO. Chandrapur Government Primary School,23.249085,90.268295,school,
19 Restaurant,23.764413,90.358983,restaurant,
1st Year Student Bus Station,23.878894,90.268637,bus_station,
2 No C & B Bus Stop,24.207134,90.418994,bus_station,
2 No Collectoret Market,23.607544,89.843076,marketplace,
2 No Primary School,24.419395,90.655118,school,
2 Point,23.80238,90.353303,restaurant,
2 in Taste Kitchen,23.81017,90.366503,restaurant,
2.0 Cafe,23.738346,90.378015,cafe,Mo-Su 11:00-22:00
21 no. Shubulla Govt Primary School,24.120574,90.05867,school,
22 Borobagh,23.802977,90.36273,building_commercial,
"23.154579578275722, 90.14025600756872",23.154557,90.140253,atm,
"23.412316, 90.214187",23.412425,90.214143,bank,
"23.520444, 90.282987",23.520429,90.282957,shop_yes,
"23.741927, 90.385776	Dhanmondi Ideal College, Central Rd, Dhaka",23.741932,90.385835,college,
"23.972368, 89.832402",23.972285,89.832389,shop_yes,
24 No Fatikjani Government Primary School,24.315985,89.927077,school,
24k,23.751445,90.423997,restaurant,
25 No Tagarbon Govt. Primary School,23.224609,89.703994,school,
27 Number,23.754627,90.372927,restaurant,
27 Shaptak Square,23.756553,90.374817,shop_mall,
"27 Tech Gallery, Electronic parts supplier",23.409258,90.258478,shop_electronics,
"27 Tech Gallery, Electronic parts supplier",23.409317,90.258498,shop_electronics,
"33/11 KV Substation of Manikgong PBS, Electrical substation",23.837339,89.81317,shop_electronics,
34 No. Char Chandpur Govt. Primary School,23.675639,89.74994,school,
35 No. Paschim Birgoun Govt. Primary School,24.221479,90.75828,school,
360teem IT Solution,23.798283,90.37274,building_commercial,Mo-Su 08:00-22:00
3G Computer,23.879785,90.265293,shop_copyshop,
3R super complex,24.221117,90.411748,marketplace,
3S,23.858994,90.400946,shop_supermarket,
4 Craze Zone,23.806386,90.366882,shop_shoes,
4 No Bhatiapara Govt. School,23.20902,89.700045,school,
"41 no. Machrong Government Primary School, Bhanga - Barisal Hwy, Rajoir",23.212953,90.024237,school,
49 KNI Avenue,23.753568,90.391741,building_commercial,
5 Star 5 তারকা,24.219183,90.412707,restaurant,
5 Star Rice agency 5 রাশি ধান সংস্থা,23.639688,90.473094,shop_yes,
51 No Tan Sutrapur Government Primary School ৫১নং টান সূত্রাপুর সরকারী প্রাথমিক বিদ্যালয়,24.089046,90.197347,school,
51 WEST Restaurent,23.621909,90.502556,restaurant,
"54 no. Khataria government primary school, Char Nasirpur, babar ali molla kandi, Shibchar",23.443021,90.101304,school,
"62 No Dattapara Government Primary School, Shibchar",23.367262,90.109369,school,
7 Eleven Mobile Shop,23.535904,89.715199,shop_yes,
7 Eleven Mobile Shop,23.594671,89.819603,shop_yes,
7 Star Furniture,23.807882,90.361726,shop_furniture,
7-Eleven,23.754584,90.411007,shop_convenience,
7-Eleven,23.753161,90.376872,fast_food,Mo-Su 08:00-23:00
7-Eleven,23.747742,90.386143,restaurant,
76 Sayadga Primary School,24.307098,90.685671,school,
78 No.Daulautpur-2 Government primary School,23.972632,89.834005,school,
786 Store,23.214367,89.696755,shop_shoes,
"88 No Bachamar Bablatala Govt. Primary school, Shibchar",23.369951,90.123269,school,
88 No Government Primary School,23.860374,90.003423,school,
88 Number Government Primary School,23.860176,90.003625,school,
90 Degree West Banani,23.793039,90.403934,restaurant,
"93 Dotara govt Primary School, Shariatpur Rd, Shibchar",23.402324,90.219007,school,
99 + Gift Shop,23.844704,90.388787,shop_gift,
A & A Car Center,23.785816,90.400658,building_commercial,24/7
A & A car center,23.785934,90.400593,building_commercial,
A B General Store,23.751716,90.405492,shop_general,
A B Pharma,23.759902,90.365927,pharmacy,
A Block,23.738342,90.394941,hospital,
A F C restaurant,23.820726,90.365033,restaurant,
A G Homeo Clinic,23.73846,90.391015,clinic,
A Hossain Cloth Store এ হোসেন ক্লথ ষ্টোর,23.902345,90.412618,shop_yes,
A Hossain Jewellers,23.806776,90.369224,shop_jewelry,
A Hossain Pharmacy(এ হোসাইন ফার্মেসী),23.81633,90.368389,pharmacy,
A K Electric and Hardware,23.845205,90.387632,shop_electrical,
A K Madecal Hal,23.700885,90.428222,pharmacy,
A M BADRUZZAMAN HIGH SCHOOL,23.759663,90.619514,school,
A M International School and College,23.795265,90.281216,college,
A M M Pharma,23.767818,90.356583,pharmacy,
A Mohammodia Medical Center,23.733718,90.416093,clinic,Sa-Th 09:00-18:00
A ONE,23.741884,90.410774,shop_bakery,
A R Electric and Hardware Store,23.84366,90.387341,shop_hardware,
A R Khan Plastic & Cookeries Store,23.860773,90.003742,shop_yes,Sa-Th 09:30-20:00
A R Telecom,23.758274,90.414082,shop_mobile_phone,
"A RAHAMAN GENERAL STOR, Grocery store",24.14167,89.90079,shop_yes,
A S Telecom,23.783044,90.409504,shop_electrical,
A Salam Complex এ সালাম কমপ্লেক্স,24.052011,90.233609,marketplace,
A U N mohila kamil madrasha,23.757548,90.409882,school,
A and A car centre,23.785816,90.400872,building_commercial,24/7
A to Z,23.621917,90.497863,shop_convenience,
A to Z Accessories এ টু জেড এক্সেসরিজ,23.821246,90.259847,shop_variety_store,
A to Z Medicine Corner,23.767571,90.357152,pharmacy,
A to Z books and Gift Corner,23.79979,90.363448,shop_gift,
A&W Restaurants,23.782013,90.416054,fast_food,
"A,Ali Pharmacy",23.708502,90.416213,pharmacy,
A-show Kichu Khie Tea Stall,23.89564,90.409075,cafe,
A. G. Church School,23.748554,90.401596,school,
A. K. Medical Hall,23.700879,90.428218,pharmacy,
A. K. Traders,23.708858,90.420984,shop_hardware,
A. Matin Bedding,23.709493,90.417447,shop_bed,Mo-Su 09:00-22:00
A. Rahim lethere shope,23.751709,90.403419,shop_lethere,
A.B.R Printing & Packaging,23.687423,90.481168,shop_yes,
A.Dry Cleaning,23.751849,90.407963,shop_dry_cleaning,
A.E.R.E School Building,23.962303,90.283094,college,
"A.K Memorial Hospital, Hospital,",24.218298,90.413168,hospital,
A.K. School And College (Main Campus),23.701902,90.443125,college,
A.L.I COMPLEX,23.849139,90.256792,shop_yes,
A.M Furniture,23.809517,90.363673,shop_furniture,
A.M Plaza,23.746201,90.412739,shop_supermarket,
A.M.C Govt private School,23.719014,90.382542,school,
A.N Bangladesh Sales And Servicing Center,23.943087,90.272303,shop_electronics,
"A.P PHARMACY, Pharmacy",23.967428,89.828318,pharmacy,
A.R Pharma,23.766668,90.417653,pharmacy,
A.R.B Furniture,23.809459,90.363588,shop_furniture,
A.S KHAN SUPER MARKET,23.933478,90.26708,marketplace,
A1 Graphics,23.734405,90.38803,shop_yes,
A1 Studio,23.721451,90.422241,shop_photo_studio,
AALOK HEALTHCARE,23.809046,90.367457,hospital,
AB Auto Traders,23.791339,90.365912,shop_motorcycle_repair,
AB Bank,23.76241,90.388944,atm,Mo-Su 00:00-12:00
AB Bank,23.618719,90.118361,bank,
AB Bank,23.791309,90.401534,bank,
AB Bank,23.813157,90.410393,bank,
AB Bank ATM,23.818858,90.36511,atm,
AB Bank Atm,23.752674,90.384906,atm,
AB Bank Limited,23.751385,90.39308,bank,
AB Bank Limited,23.78498,90.568664,bank,
AB Bank Limited,23.764469,90.392539,bank,
AB Bank Limited,23.790573,90.375518,atm,
AB Bank Limited ATM Booth,23.745942,90.41265,atm,
AB Bank Limited | ATM Booth,23.737855,90.428655,bank,
AB Bank Ltd,23.741269,90.383052,atm,
"AB Bank Ltd.(Kalampur Branch), Bank",23.919339,90.14923,bank,
AB COMMERCIAL,23.67341,90.518656,shop_yes,
AB Computer Scale এবি কম্পিউটার স্কেল,23.636638,90.474816,fuel,
AB Computers,23.750451,90.387133,shop_electronics,
AB Electronics এবি ইলেকট্রনিক্স,23.847573,90.256567,shop_electronics,
"AB Filling Station, Barisal Hwy, Tekerhat",23.236521,90.02097,fuel,
AB Paper House,24.228392,90.053589,shop_yes,
AB Stitch,23.733531,90.384925,shop_clothes,
AB Trading Corporation,23.738957,90.387816,shop_trade,
"AB-TREDARS, Market",23.96255,89.839873,marketplace,
ABAKAZ,23.822375,90.362853,shop_yes,
ABAKAZ,23.82238,90.362872,building_commercial,
"ABB Turbocharging Service station, ABB Limited",23.938119,90.385146,shop_wholesale,
ABC Eye Hospital এবিসি চক্ষু হাসপাতাল,24.014557,90.38363,hospital,
ABC Radio FM 89.2 FM,23.752593,90.392648,shop_electronics,
ABC Service Point,23.79429,90.36528,shop_motorcycle_repair,
ABC Super Shop এবিসি সুপার শপ,24.220127,90.413673,marketplace,
ABK International,23.738629,90.385472,shop_computer,
ABM Jobayar CNG Filling Station এবিএম জোবায়ের সিএনজি ফিলিং স্টেশন,23.650853,90.466671,fuel,
"ABN Paget CNG Station, Gas station",23.778676,90.356957,fuel,
ACC,23.883629,90.302462,building_commercial,
ACG Gas Station,23.806301,90.26094,fuel,
ACI Harbour,23.760006,90.367363,shop_seafood,
"ACI Limited Gazipur Depot, Warehouse",23.999189,90.382203,shop_wholesale,
ACI Motors Show Room এসিআই মটরস শো রুম,24.000251,90.382928,shop_car,
ACI Motors Showroom,24.024944,90.385059,shop_motorcycle,
"AD Bike spare parts And servicing center, Auto repair shop",24.026131,90.242622,shop_car_repair,
AD Holding Limited Bldg,23.730196,90.406606,building_commercial,
"ADBM HIGH SCHOOL, High school",24.198221,90.417906,school,
ADC Empire Plaza,23.747679,90.370718,building_commercial,
ADC Sergical,23.604724,89.836357,pharmacy,
ADDA Kabab & Restuarant,23.839335,90.256715,restaurant,
"ADMA MEMORIAL HOSPITAL AND DIGITAL DIAGNOSTIC CENTER, Hospital, Bhanga - Barisal Hwy, Tekerhat",23.222747,90.020017,hospital,
ADN Telecom,23.781088,90.402537,building_commercial,
ADONIS Men's Salon,23.784019,90.417318,shop_hairdresser,
"AFC Mini Chinese, Hasara Bus Stand, Dhaka - Mawa Hwy, Solepur",23.58602,90.309323,restaurant,
AFC Pharmacy,23.717857,90.425248,pharmacy,
AFC Pharmacy,23.708098,90.423974,building_commercial,
AFLAH ZONE,23.70012,90.433265,shop_clothes,24/7
AG Food,23.624998,90.49837,restaurant,
AHAD H/W PAINT & ELECTRIC,23.929874,90.452487,shop_yes,
AHB CNG Filling Station,23.894123,90.670464,fuel,
AHN Tower,23.746304,90.392971,building_commercial,
AIMS Hospital,23.77338,90.425862,hospital,
AIUB Parking Space,23.822612,90.427591,parking,
AJ Heights,23.783181,90.42526,building_commercial,
"AKASH DTH CENTRAL WARE HOUSE (BEXIMCO COMMUNICATION), Warehouse",24.025572,90.242591,shop_wholesale,
AKIK TELECOM,23.912713,90.424466,shop_mobile_phone,
AKS Pharmacy,23.796302,90.387488,pharmacy,Mo-Su 07:00-12:00
AKS Pharmacy,23.745581,90.385099,pharmacy,
AL ARABIAN,23.741976,90.410812,shop_bakery,
AL Madani Restaurant,23.82587,90.258407,restaurant,
AL-ARAFAH ISLAMI BANK LIMITED,23.615015,90.512219,bank,
AL-KHABBAZ,23.741899,90.410664,shop_bakery,
AL-Makkah Pharmacy,23.788561,90.366491,pharmacy,
AL-Modina Cosmetics,23.372035,90.093721,shop_cosmetics,
ALFRESCO,23.790965,90.404118,restaurant,
ALHAJ ABU TALEB MOLLAH JUNIOR SCHOOL,23.795548,90.675931,school,
ALIX AVIEN,23.791143,90.402734,shop_cosmetics,
ALOR DISHARY IDEAL SCHOOL,23.989929,90.365595,school,
"ALPHA BANGLA HIGH SCHOOL, Middle school",23.809544,90.341479,school,
AM Computer,23.738672,90.385434,shop_computer,
AMAN (PVT.) LTD.,23.784402,90.399904,building_commercial,
AMERICAN Burger,23.790841,90.405225,restaurant,
"AMMAJAN MINI CHINESE, Family restaurant",23.913896,90.3179,restaurant,
AMS International Sweaters L.T.D,23.94996,90.381449,shop_yes,
AMZ HOSPITAL LTD,23.784302,90.425987,hospital,
AMZ Hospital Ltd,23.784302,90.425985,hospital,
AN-NAFEE HOTEL AND RESTAURANT,23.808905,90.367048,restaurant,
ANIZOR,23.790789,90.406815,shop_clothes,
ANJUM kabab ghor,23.728117,90.422206,restaurant,08:00-23:00
APBN Headquarter,23.857305,90.404499,police,
APEX,23.791922,90.415317,shop_shoes,
APT,23.798735,90.353084,shop_clothes,
AQP Shopping Mall,23.741613,90.408239,shop_mall,
AR Computer,23.623447,90.500756,shop_computer,
AR Market,23.789185,90.573951,shop_mall,
ARA Bhaban,23.752076,90.392164,building_commercial,
ARA Center,23.745016,90.381523,shop_mall,
ARAIHAZAR PILOT MODEL GOVT. HIGH SCHOOL,23.791328,90.662373,school,
ARAX,23.791156,90.402943,restaurant,
ARCHIES Gift Shop,23.701486,90.42777,shop_gift,
ARMY IBA Business School,23.907052,90.265254,school,
ARROWHEAD GRILL,23.79071,90.404069,restaurant,
ART Furnishers,23.792709,90.40443,shop_furniture,
ARTISAN,23.790828,90.403829,shop_clothes,
AS International School,23.714156,90.364986,school,
AS Steel Fruit Shop আঃ রহমান ফ্রুট সপ,23.924134,90.615089,shop_yes,
ASA University Bangladesh,23.773201,90.366602,university,
"ASA University Bangladesh Permanent Campus, University",23.890831,90.361797,university,
"ASHKOR PLLAZA, Hardware store",24.371092,89.87835,shop_hardware,
ASK AUTO JAPAN জিজ্ঞাসা অটো জাপান,23.933611,90.267159,shop_mall,
ASR Enterprise,23.751546,90.402101,shop_car_repair,
ASTO RION,23.741889,90.409195,shop_clothes,
ATLAS FABRICS LTD.,23.601422,90.491165,shop_clothes,
ATN Bangla,23.753107,90.392676,shop_electronics,
ATN NEWS,23.754051,90.392093,shop_electronics,
ATS Power & Technology Ltd,24.22663,90.4098,shop_electronics,
AUMHS Field,23.851489,89.995033,school,
AYAT College of Nursing & Health Sciences (ACNHS),23.721155,90.42875,school,
AZ Pharma,23.766334,90.358143,pharmacy,
AZ Vision Care,23.797692,90.364891,shop_optician,
Aabco Money Changer,23.733392,90.415486,shop_money_lender,"Mo-We, Fr-Su 09:00-22:00"
Aagora,23.869457,90.389797,shop_supermarket,
Aakon Medicine Corner আকন মেডিসিন কর্ণার,23.902109,90.412814,pharmacy,
Aakondo genarel store,23.751409,90.405618,shop_convenience,
Aalok Diagnostic Center,23.808743,90.36835,hospital,
Aareya Sewing Center আরিয়া সুইং সেন্টার,23.885038,90.399693,shop_yes,
Aarong,23.861809,90.399437,shop_yes,
Aarong,23.861815,90.399438,shop_clothes,
Aarong,23.813009,90.423565,shop_clothes,
Aarong,23.758436,90.444183,shop_clothes,
Aarong,23.75083,90.390956,shop_clothes,
Aarong,23.790108,90.410729,shop_clothes,
Aarong Clothing store,23.749279,90.407323,shop_mall,
Aarong Gulshan Car Park,23.770492,90.409838,parking,
Aarushi Enterprise,23.690445,90.547181,shop_dairy,
Aastha,23.703527,90.419388,shop_furniture,
Aawal Hotel,23.783468,90.412177,restaurant,
Aaz Baker's,23.7565,90.364182,shop_bakery,Mo-Su 08:00-22:00
"Ababil Academy, School",24.157929,90.425973,school,
Ababil Digital Colour Lab,23.732982,90.415244,shop_photo_studio,
Abacus,23.746611,90.370792,restaurant,
Abacus Thai and Chinese Restaurant,23.778922,90.416849,restaurant,
Abadi Highway Restaurant,23.652613,90.578651,restaurant,
Abbas & Sons আব্বাস এন্ড সন্স,23.846695,90.249109,shop_convenience,
Abbas Hair Salon,23.890473,90.271801,shop_hairdresser,
"Abbas Hotel, Dhaka",23.835602,90.376845,restaurant,
Abbas Tailors & fabrics,23.780518,90.433168,shop_tailor,
"Abdul Ali Filling Station, Gas station",24.008871,90.332918,fuel,
Abdul Halim Hairdresser Saloon,23.784206,90.411607,shop_hairdresser,
Abdul Hamid Building আব্দুল হামিদ ভবন,24.440551,90.774284,college,
Abdul Haque Center,23.785043,90.412044,shop_general,
Abdul Jalil Academy,23.813131,89.786676,school,
Abdul Jalil Hotel,23.844684,90.388776,restaurant,
Abdul Kader Pharmacy,23.70415,90.42236,pharmacy,
Abdul Kadir Mollah City College,23.925539,90.699695,college,
Abdul Kaiyum General Store,23.844652,90.388159,shop_yes,
Abdul Karim Vila,23.707157,90.420172,shop_general,
Abdul Kayum General Store,23.711095,90.424321,shop_yes,
Abdul Makel Master Kindergarten And High School,24.200966,90.421258,school,
"Abdul Mazid Bhuiyan Mahila Alim Madrasah, School",24.539953,89.992363,school,
Abdul Rahman,23.69727,90.423191,shop_furniture,
Abdul Zabbar & Sons,23.717215,90.406842,shop_hardware,"Mo, We-Su 09:00-21:00"
Abdul karim kobiraj,23.783445,90.411149,pharmacy,
"Abdul khalek Market, Market",24.259946,90.397756,marketplace,
Abdulla Bekary,23.215175,89.697097,shop_bakery,
Abdulla Pharmacy,23.796793,90.377145,pharmacy,
Abdullah & Masum Store,23.71967,90.49391,shop_yes,
Abdullah Al Zakir Filling Station,23.697747,90.534452,fuel,
Abdullah Biriani House,23.710375,90.424097,restaurant,
"Abdullah Biriyani House Restaurant, Keraniganj, Dhaka",23.695225,90.399151,restaurant,
Abdullah Chicken Shop,23.733847,90.382996,shop_butcher,
Abdullah Cycle Store,23.718221,90.407123,shop_bicycle,Mo-Su 09:00-23:00
Abdullah Drug House,23.817324,90.353833,pharmacy,
Abdullah Electronics,23.742084,90.392134,shop_electronics,"Mo,We-Su 10:00-20:00; Tu off"
Abdullah Electronics House,23.758924,90.413721,shop_electronics,
"Abdullah Esteel And Walksp, Homeopathic pharmacy",24.467709,89.87446,pharmacy,
Abdullah Fashion,23.811864,90.369765,shop_clothes,
Abdullah Fastfood and Confectionery,23.798268,90.387102,shop_confectionery,
Abdullah Hairstyles,23.850237,90.387674,shop_hairdresser,
Abdullah Pharmacy (আব্দুল্লাহ ফার্মেসি),23.771557,90.346646,pharmacy,
"Abdullah Pur Wood Market, Dhaka - Mawa Hwy, Kalakandi",23.659696,90.355639,marketplace,
Abdullah Store,24.126295,90.370993,shop_yes,
Abdullah Traders,23.717344,90.406261,shop_bicycle,Mo-Su 10:00-20:00
Abdullah Unani Pharmacy,23.977383,90.38155,pharmacy,
Abdullah auto,23.88384,90.261493,shop_car_parts,
Abdullah cafe,23.704074,90.420413,cafe,
Abdullah pharmacy,23.860616,90.26018,pharmacy,
Abdullah shoes,23.986722,90.225851,shop_yes,
"Abdullahpur Bus Station, Gas station",23.880074,90.400776,fuel,
"Abdullahpur Bus stop, Dhaka - Mawa Hwy, Kalakandi",23.660639,90.358592,bus_station,
"Abdullahpur Government Primary School, Dhaka - Mawa Hwy, Kalakandi",23.660929,90.360152,school,
"Abdullahpur Police Post, Uttara",23.879692,90.401484,police,
"Abdullahpur Uposhakha, IFIC Bank Limited, Kalakandi",23.660124,90.360849,bank,
"Abdullahpur, Keraniganj, Dhaka - Mawa Hwy, Kalakandi",23.66026,90.359678,marketplace,
"Abdur Rahim Biriyani House, Chinkutia Chowrasta, South Keraniganj, Dhaka",23.695049,90.398679,restaurant,
Abdur Rahman Ideal School,23.911918,90.304158,school,
Abdur Rajjak High School,23.347111,90.302685,school,
Abdur Rashid Mia High School,23.372333,90.032306,school,
"Abed Ali Girls School And College, Girls high school",24.200499,90.421607,school,
Abedin & Sons আবেদীন এন্ড সন্স,23.847049,90.254682,shop_yes,
Abedin Hospital (Pvt.),24.055771,90.974794,hospital,
Abedin Hospital (Pvt.),24.055771,90.974792,hospital,
Abedin Pharma,23.75686,90.361293,pharmacy,
Abedin Tailors and Fabrics,23.806935,90.369984,shop_clothes,
Abeer General Hospital,23.748029,90.398816,hospital,
Abesh Hotel,23.820041,90.365263,restaurant,
Abesh Hotel and Restaurant (Branch- 02),23.828903,90.364393,restaurant,24/7
Abian Sky Shop Super Fitness and Sports,23.807211,90.361814,shop_sports,
Abid Enterprise,23.730596,90.416306,shop_trade,
Abid General Store,23.795305,90.352065,shop_general,
Abid Gents' Parlour,23.811945,90.369091,shop_beauty,Tu-Su 09:00-23:00; Mo off
Abid Trade,23.721953,90.40572,shop_gift,"Mo, We-Su 09:00-12:00"
"Abid telecom, Cell phone store",24.056793,89.873346,shop_mobile_phone,
Ability Based Accelerated Learning Centre,23.784799,90.412324,school,
Ability Based Accelerated Learning Centre,23.784785,90.412323,school,
Ability Based Accelerated Learning Centre,23.78227,90.411429,school,
Abir,23.213878,89.709487,shop_computer,
Abir Car Selection,23.978505,90.380864,shop_car_repair,
Abir Cycle,23.718081,90.407053,shop_bicycle,
"Abir Enterprises, Majhirghat-Kazirhat Rd, Zajira",23.406352,90.27933,shop_yes,
Abir Foods,23.824221,90.362508,restaurant,
Abir General Store,23.991269,90.243367,shop_yes,
"Abir Medicine Corner, Pharmacy",24.027811,90.242308,pharmacy,
Abir Traders,23.722113,90.405651,shop_trade,
Abloom Cafeteria,23.602486,89.835358,restaurant,Mo-Su 10:00-22:00
Abloom Cafeteria প্রস্ফুটিত ক্যাফেটেরিয়া,23.608142,89.843408,restaurant,
Abmir Fasion Point,23.78996,90.366257,shop_clothes,
Abong এবং,23.600252,89.833782,shop_clothes,
Abonno Auto Parts,23.707573,90.412575,shop_car_parts,
Abrar Cycle Store,23.717752,90.406984,shop_bicycle,
Abu Huraira Madrasa,23.609917,90.495613,school,
Abu Sayed High School,24.025652,89.856925,school,
Abu Sayeed General Store,23.750632,90.406651,shop_convenience,
Abudanga Bojlur Rahman High School,23.91747,89.816691,school,
Abul Electronics,23.758501,90.413053,shop_electronics,
Abul Electronics,23.758553,90.413013,shop_electronics,
"Abul Hasem Model Academy, School",23.956512,90.380212,school,
Abul Hasem Super Market আবুল হাসেম সুপার মার্কেট,24.220088,90.413566,shop_mall,
"Abul Hashem Bepari Vidyaniketan, School",24.213459,90.41546,school,
Abul Hashem Super Market,24.328129,90.679848,building_commercial,
Abul Hossain Auto Dry Cleaner's,23.851563,90.417713,shop_laundry,
Abul Hotel,23.754639,90.415394,restaurant,
Abul Kashem Febricks,23.796602,90.350345,shop_fabric,
Abul Sarder Store,23.785771,90.412072,shop_tea,
Abul molla tea store,23.811194,90.356549,shop_tea,
Academia,23.745954,90.374085,school,
Academia,23.754997,90.364431,school,
Academia(একাডেমিয়া),23.822002,90.364888,school,
Academic Building,24.427019,90.652765,school,
Accord Tech Solutions,23.822729,90.366706,building_commercial,
Accounting Building,24.441375,90.773859,college,
Accounting House,23.751293,90.405682,school,
Achahak Cloth Store,23.707641,90.420885,shop_clothes,
Achinto Medical,23.603269,89.836987,pharmacy,
Acquirem,23.710918,90.423719,shop_yes,
Active Social welfare Society Health Clinic(একটিভ সোশাল ওয়েলফেয়ার সোসাইটি হেলথ ক্লিনিক),23.817432,90.368361,clinic,
Ad-Din Medical College Hospital ~ MaghBazar,23.7484,90.405595,hospital,
Ad-Din Women's Medical college & Hospital,23.748503,90.405068,hospital,
Ad-din Barrister Rafiq-ul-haque Hospital,23.695131,90.432736,hospital,
"Ad-din Berrister Rafiq-ul- Haque hospital,Jurain",23.694866,90.43283,hospital,
Ad-din Hospital,23.748846,90.405235,hospital,
"Adabari Government Primary School, Primary school",24.415905,89.903175,school,
Adabor 17/B Jame Mosjid (আদাবর ১৭/বি জামে মসজিদ),23.77596,90.349507,school,
Adabor Kacha Bazar,23.774088,90.357058,shop_supermarket,
Adabor Pharmacy-2,23.773957,90.357158,pharmacy,08:00-20:00
Adam Ali Market Kacha Bazar,23.876419,90.406137,shop_mall,
Adam's Corner Barbar Shop,23.75598,90.375295,shop_hairdresser,"Mo, We-Su 09:00-22:00"
Adamjee Cantonment College,23.794686,90.394315,college,
Adamjee Cantonment Public School,23.793546,90.393277,school,
Adamji Court Annex Building,23.728533,90.415878,building_commercial,
Adarsh Balika Uscha Biddalay,23.602693,89.835714,school,
Adarsha High School,23.806781,90.37083,school,
"Adarsha High School, High school",23.806857,90.370502,school,
"Adarsha Homeo Hall, Pharmacy, Par Gendaria, Mir Hajirbag, Jatrabari, Dhaka",23.708482,90.427576,pharmacy,
Adarsha Homeo Pharmacy,23.768116,90.362318,pharmacy,
Adarsha Homeo Pharmacy,23.768181,90.362283,pharmacy,
Adarsha Medical,23.588707,89.833622,pharmacy,
Adarsha Organic Food,23.808752,90.364215,shop_health_food,
Adarsha Panzabi Tailor,23.701475,90.428728,shop_tailor,
"Adarsha bikrampur mishtanno vandar, Keraniganj - Hashara Rd, Solepur",23.586341,90.309551,pharmacy,
Adarsha high school gate,23.806887,90.370741,school,
Adarsho Homio Hall,23.846532,90.246817,pharmacy,
Adarsho Pushpo,23.736791,90.395789,shop_florist,
Adda,23.79534,90.373763,restaurant,
Adda,22.964948,89.816271,shop_tea,
Adda Dot Com,23.810168,90.368545,cafe,
Adda Restaurant and Part Center,23.741894,90.382463,restaurant,
"Addersha Bidda Niketon, Manikdi",23.825212,90.394078,school,
Addprint,23.75099,90.409241,shop_bookmaker,
Adharsho High School,23.78194,90.37875,school,
Adhonik laundry,23.755133,90.409475,shop_laundry,
Adhunic  Cycle Store,23.717989,90.407058,shop_bicycle,
Adhunic Screen Print,23.734142,90.38338,shop_paint,
Adhunik Dental Care,23.588265,89.834123,pharmacy,
Adhunik Ghor,23.735923,90.38923,shop_paint,
Adhunik Ladies Tailors,23.81226,90.42448,shop_tailor,
Adhunik Shoes,23.785415,90.426285,shop_shoes,
Adhunik Sweets & Confectionary,23.70146,90.428028,shop_bakery,
Adhuria Bus Stand,23.80159,90.584421,bus_station,
"Adi Mayer Dowa Hotel And Restaurant, Restaurant",24.070449,90.210791,restaurant,
Adi MistiMukh,23.616521,90.504494,shop_yes,
Adi Moron Chand Ghosh and Sons Mistanno Vandar,23.714982,90.411522,restaurant,Mo-Su 08:00-22:00
Adi Pothseba Hotel,24.084913,90.199659,restaurant,
"Adi Tangail Cadet School And College, School",23.795884,90.268201,school,
Adi Tangail Mistanno Vandar,23.838147,90.250887,restaurant,
"Adia Ladies Tailors & Fabrics, College Road, South Keraniganj, Dhaka",23.704337,90.3991,shop_tailor,
Adib Medical Hall,24.267073,89.926254,pharmacy,
Adiba Beauty Parlors,23.808232,90.372896,shop_beauty,
Adiba Cycle Store,23.717778,90.406986,shop_bicycle,
Adiba Pharmacy,23.554416,90.533173,pharmacy,
Adiba Toiyeba bostraloy,23.815301,90.374153,shop_clothes,
"Adil motors and hardware, Hardware store",23.939478,89.849359,shop_hardware,
Adip Supper Market,24.219408,90.412578,marketplace,
"Aditya Motors, Bike wash",24.379452,89.931392,shop_motorcycle,
Adklimatul Quran Madrasah,23.737003,90.3634,school,
Administrative Building,24.441291,90.774993,college,
Adnan Enterprise,23.708803,90.420728,shop_hardware,
Adnan General Store,23.74356,90.386965,shop_yes,
Adnan staitionary,23.878209,90.259009,shop_variety_store,
Adonis Mens Grooming Salon,23.788783,90.416278,shop_hairdresser,
Ador Bhai Fashion,23.784904,90.367421,shop_optician,
Ador Store,23.84953,90.387719,shop_variety_store,
Adorsho Accademy Gendariya,23.702555,90.427163,school,
Adorsho Bostro Bitan আদর্শ বস্ত্র বিতান,23.895789,90.406829,shop_clothes,
Adorsho Dental Care(আদর্শ ডেন্টাল কেয়ার),23.817176,90.3683,clinic,
Adorsho Medical Hall(আদর্শ মেডিক্যাল হল),23.81687,90.372584,pharmacy,
Adorsho Paultry Firm,23.758348,90.411406,shop_yes,
Adrita Pharma,23.761393,90.362012,pharmacy,
Adroit Media,23.735245,90.388659,shop_gift,
Advance Electro Trading,23.738878,90.389092,shop_electronics,
Advance Engineering & Tachnology,23.908494,90.292699,shop_wholesale,
Advance Healthcare For Women,23.777001,90.364659,clinic,
Advance Hospital Ltd.,23.762546,90.436634,hospital,
Advance Multimedia,23.7391,90.389583,shop_video,
Advance Office Equipment,23.730449,90.416152,shop_stationery,
Advance School for Special Children,23.771913,90.366497,school,
Advanced Laser Cosmetic and Skin Care Center,23.741404,90.383021,clinic,
Adventist International Mission School,24.059552,90.223833,school,
Aeysa aktar villa,23.708755,90.419062,shop_bakery,
Afaz Uddin's Pharmacy,24.223053,90.757255,pharmacy,
Afia CNG & Filling Station Co. Ltd. -2 আফিয়া সিএনজি এন্ড ফিলিং ষ্টেশন -২,23.639097,90.592643,fuel,
Afia Medical Hall(আফিয়া মেডিকেল হল),23.828454,90.361597,pharmacy,
Afia Medicine Corner(আফিয়া মেডিসিন কর্নার),23.8289,90.365841,pharmacy,
Afia Shoes,23.78509,90.367343,shop_shoes,
Afifa Electric and Electronics,23.940092,90.270936,shop_electronics,
Afiyat Medical center,23.77054,90.355545,pharmacy,
Afnan Drug House,23.844977,90.387654,pharmacy,
Afnan Fiber Glass Deutin,23.716443,90.406819,shop_hardware,
Afra Pharmacy,23.758663,90.355778,pharmacy,
Afreen Medical Hall,23.737489,90.449483,pharmacy,
Afrin Furniture,23.844225,90.387416,shop_furniture,
Afrin Homeo Hall,23.751481,90.361802,pharmacy,
Afrin Pharmacy,23.603457,89.837512,pharmacy,
Afrin general store,23.754353,90.408964,shop_convenience,
Afroza Buildres,23.613706,89.854377,shop_yes,
Afsan Laundry and Dry Cleaner,23.718069,90.425275,shop_laundry,
Afsana Shoes,23.785198,90.367327,shop_shoes,
Afsar Enterprice,23.716665,90.344759,shop_yes,
Afsar Memorial High School,24.022059,89.984299,school,
Aftab CNG Station,23.903599,90.399518,fuel,
Aftab DIgital Diagonestcis Center,23.605159,89.836897,hospital,
Aftab Memorial Academy(আফতাব মেমোরিয়াল একাডেমি),23.821452,90.368447,school,
Aftab Motors,23.7079,90.412607,shop_car_parts,
Aftab Restaurant,23.723439,90.40015,restaurant,
Aftab Restaurant,23.738818,90.374756,restaurant,Mo-Su 07:00-22:00
Aftab Restaurant and Kabab,23.739266,90.375333,restaurant,07:00-23:00
Aftab Uddin Sarkar Adarsha High School,23.879449,90.426753,school,
Aftab store,23.703457,90.420329,shop_general,
Aftab uddin School And College,24.200893,90.915634,school,
Afzal Brothers Filling Station আফজাল ফিলিং ষ্টেশন,23.842068,90.256668,fuel,
"Afzal General Store, General store",24.037013,90.388376,shop_yes,
Afzal Shoes,24.41661,90.652246,shop_shoes,
Afzal Shoes,23.473753,90.2627,shop_shoes,
"Afzal Steel & Thai House, Keraniganj",23.688658,90.401512,shop_yes,
Afzal Textile,23.869075,90.668648,shop_clothes,
Afzal Trading,23.715286,90.406847,shop_trade,"Mo, We-Su 09:00-21:00"
"Ag-Elasin Government Primary School, School",24.12249,89.897427,school,
Aga Khan School,23.860989,90.402337,school,
"Agamoni Transport & Cargo Service, Transportation service, Nabab Katar, Charkharpul, Dhaka",23.723714,90.401329,shop_travel_agency,
"Aganagar Government Primary School, Jhaubari Graveyard, Keraniganj",23.706074,90.400144,college,
Agargaon Bazar,23.783433,90.377948,shop_supermarket,
Agargaon Metro Station,23.778047,90.380266,shop_ticket,Mo-Su 08:00-20:30
Agargaon pharmacy and departmental store,23.781005,90.368616,pharmacy,
Agarsindu Filling Station,24.257062,90.684317,fuel,
Agiba Store,23.733452,90.365843,shop_convenience,
Agira N N CNG Filling Station,23.854189,90.661642,fuel,
Agomon CNG & Filling Station আগমন সি এন জি এন্ড ফাইলিং ফীলিং স্টেশন,23.628695,90.601917,fuel,
Agora,23.788775,90.416398,shop_supermarket,
Agora,23.741958,90.411816,shop_convenience,
Agora,23.801165,90.354704,shop_supermarket,
Agora,23.859445,90.401542,shop_supermarket,
Agora,23.765079,90.358405,shop_supermarket,
Agora,23.758003,90.386268,shop_supermarket,
Agora,23.824226,90.364519,shop_department_store,
Agora,23.809472,90.368887,marketplace,
"Agora - Gausul Azam Avenue, Uttara",23.86921,90.389439,shop_convenience,
Agora Segunbagicha,23.733045,90.408099,shop_supermarket,
Agora Super Shop,23.738563,90.409015,shop_supermarket,
Agrani Bank,23.741938,90.391774,bank,
Agrani Bank Atm,22.966141,89.817124,atm,
Agrani Bank Limited,23.827881,90.364435,bank,Su-Th 10:00-15:30
Agrani Bank Limited,23.872633,90.401068,bank,
Agrani Bank Limited,24.418222,90.651924,bank,
Agrani Bank Limited,22.966031,89.817165,bank,
Agrani Bank Limited,23.720997,90.41285,building_commercial,
"Agrani Bank Limited, Badda Branch",23.77869,90.425862,bank,
"Agrani Bank Limited, Gulshan Corporate Branch",23.780583,90.418325,bank,
Agrani Bank Ltd,24.328076,90.679925,bank,
Agrani Bank Ltd,24.250982,90.683313,bank,
Agrani Bank PLC,23.769921,90.400859,bank,
Agrani Bank PLC,23.797583,90.353726,bank,
Agrani Bank PLC | Head Office,23.727275,90.419013,bank,
"Agrani Bank PLC, Bank",23.804436,90.227252,bank,
"Agrani Bank PLC, Public sector bank, Shahbag Rd, Dhaka",23.738199,90.393342,bank,
Agrani Bank অগ্রণী ব্যাংক,24.437671,90.777185,bank,
Agrani Bank-অগ্রনী ব্যাংক,24.230262,90.051355,bank,
Agrani DOER Banking,24.051139,90.871014,bank,
"Agrani Model College, College",23.992448,90.381926,college,
Agrani Restaurant অগ্রণী রেস্টুরেন্ট,23.783271,90.347403,restaurant,
Agrani School & College,23.729161,90.383126,shop_bookmaker,
Agrani School and College,23.728986,90.3834,school,
Agrani bank Ltd-Baroicha Agent Banking_Bhairab bazar sakha,24.05113,90.870087,bank,
Agrani bank ltd,22.965992,89.817144,bank,
"Agricultural Training Institute, Faridpur",23.575617,89.793329,college,
"Agriculture Training Institute (A.T.I), College",23.907134,90.063314,college,
Agroni Bank LTD,23.791079,90.375285,bank,
"Agrovim Ltd.,Faculty of pharmacy",23.798514,90.251991,pharmacy,
Agun Kabab,23.752552,90.418697,restaurant,
Ahad Electronics,23.817331,90.356105,shop_electronics,
Ahad Lace,23.703573,90.419323,shop_clothes,
Ahammed Pharma,23.759027,90.36474,hospital,
Ahana Jewelrs,23.792329,90.388066,shop_jewelry,
Ahasan Electro Zone,23.809621,90.372907,shop_electronics,
Ahasan Pharmacy,23.8076,90.378424,pharmacy,"09:00-13:30,15:30-24:00"
Ahely,23.79277,90.406588,restaurant,
Ahesania Libray,23.214319,89.696623,shop_books,
Ahhare!!!,23.808792,90.360655,restaurant,
Ahmad Gas Service,23.754499,90.410367,fuel,
Ahmad Pharmacy,23.860815,90.260374,pharmacy,
Ahmadia General Store,23.845297,90.387635,shop_yes,
"Ahmed Bawany Academy School and College, Kassabtuly/Kasaituly Ln, Dhaka",23.714,90.404264,school,
Ahmed Burger Shop,23.708459,90.414738,restaurant,
"Ahmed Filling And CNG, Gas station",24.270914,90.395765,fuel,
Ahmed Food Plaza,23.818149,90.365766,restaurant,
Ahmed Jewellery,23.758391,90.411901,shop_jewelry,
Ahmed Medicine,23.751878,90.378097,pharmacy,
Ahmed Oushodhalay,23.810339,90.367911,pharmacy,
Ahmed Oushodhaloy,23.812481,90.425283,pharmacy,
Ahmed Pharmacy,23.7785,90.354891,pharmacy,09:00-11:00
Ahmed Pharmacy,23.738844,90.374835,pharmacy,Mo-Su 09:00-21:00
"Ahmed Specialized Hospital, Mazed Sardar Road, Nimtoli Ln, Dhaka",23.72368,90.400973,hospital,
Ahmed’s General Store,23.771563,90.425426,shop_convenience,
Ahmmed Clothes Store,23.732978,90.384711,shop_clothes,"Mo, We-Su 09:00-21:00"
Ahnaf Chinese Food,23.738593,90.39298,fast_food,"Mo-Th,Sa-Su 10:00-22:00; Fr off"
Ahona Pharmacy,23.744111,90.366192,pharmacy,Mo-Su 09:00-21:00
Ahsan Habib General Store,23.751418,90.406159,shop_general,
Ahsan Publication,23.750818,90.409127,shop_bookmaker,
Ahsan Publication,23.738636,90.391142,shop_books,
Ahsan Shop,23.703846,90.419292,shop_grocery,
Ahsan Ullah Market,23.768398,90.352693,building_commercial,
Ahsania Pharmacy,23.81309,90.369434,pharmacy,"Sa-Fr 10:00-13:30, 17:00-24:00"
Ahsania Taat ghor,23.74557,90.384931,shop_clothes,Mo-Su 04:00-23:00
Ahsanullah Canteen,23.724079,90.393026,cafe,
Aibl Atm,23.602761,89.834637,atm,
Aichi Hospital,23.741004,90.478494,hospital,
Aid Japan Pharmacy,23.738413,90.377987,pharmacy,Mo-Su 00:00-12:00
Aim Computer & Communication System,23.738585,90.385458,shop_computer,
Aim Enterprise,23.800375,90.355215,shop_yes,
Air Asia,23.730272,90.416593,shop_ticket,Mo-Su 09:00-18:00
Air Con Electronics,23.787426,90.366942,shop_electronics,
Air Headquarter Bus Stop,23.817204,90.400453,bus_station,
Air Samin Irani,23.813768,90.423579,shop_clothes,
Airport Hotel & Restora,23.850618,90.409074,restaurant,6:00-24:00
Airport Optics,23.851484,90.412598,shop_optician,
Airport Pharmacy,23.793636,90.388248,pharmacy,
Airport Tailor's,23.851488,90.415726,shop_tailor,
Airtel Relationship Center এয়ারটেল ব্যাংকিং পয়েন্ট,23.885275,90.400407,shop_yes,
Airtel Relationship Center এয়ারটেল ব্যাংকিং পয়েন্ট,23.906011,90.399054,shop_yes,
Airtel Relationship Center এয়ারটেল ব্যাংকিং পয়েন্ট,23.624446,90.502495,shop_mobile_phone,
Airtel care service এয়ারটেল ব্যাংকিং পয়েন্ট,23.901721,90.412403,shop_yes,
Aisha Trade international,23.741962,90.392152,shop_electronics,"Mo,We-Su 10:00-20:00; Tu off"
Aishara Govt Primary School,24.288722,89.979464,school,
Aishara High School,24.289615,89.978786,school,
Aishwarya Sharee Center,23.746442,90.412201,shop_clothes,
Aitam Metarnity and General Hospital,23.769524,90.358059,hospital,
Aiysha Store,23.78435,90.410169,shop_tea,
Ajanta,23.733993,90.385018,shop_beauty,
Ajanta Tailor,23.734685,90.384923,shop_tailor,10:00-20:00
Ajhar Garments,24.416443,90.652884,shop_clothes,
Ajhar Garments,24.416493,90.652991,shop_clothes,
Ajiha General Store,23.843798,90.387368,shop_yes,
Ajij Pharmacy,23.757157,90.406952,pharmacy,
Ajmeer Electric,23.735084,90.385017,shop_electrical,
Ajmeri Pharma,23.772707,90.356124,pharmacy,
Ajmeri store,23.751223,90.404397,shop_variety_store,
Ajmir Electronics,23.735026,90.384928,shop_electronics,
Ajmol Departmental Store,23.699781,90.424428,shop_general,
Ajmot Ali CNG Filing Station,24.089382,90.183929,fuel,
Ajo Idea Space,23.870434,90.392161,restaurant,11:00-23:00
Ajwah,23.851336,90.412543,shop_pastry,
Ajwah,23.812364,90.424969,fast_food,
Ajwah,23.790412,90.387966,fast_food,
Ajwah,23.721744,90.42519,fast_food,
Ajwah Bake & Pastry,23.762501,90.359664,shop_confectionery,
Ajwah Bake & Pastry,23.760162,90.368405,shop_confectionery,
Akaid Pharmacy,23.777523,90.370818,pharmacy,
"Akash CNG Filling Station, Gas station",23.922039,90.137917,fuel,
Akash Dairy Feed and Medicine,23.592116,89.81568,shop_yes,
Akash Digital Studio,23.84465,90.388191,shop_photo_studio,
Akash Electronics,23.798244,90.351813,shop_electronics,
Akash Hair Fashion,23.810116,90.372657,shop_hairdresser,
Akash Hair Saloon,23.808107,90.372461,shop_beauty,
Akash Homeo,23.760196,90.363824,pharmacy,
"Akash Moni Market ~ Thatari Bazar, Gulistan Rd, Dhaka",23.721646,90.416369,marketplace,
Akash Pharmacy,24.254463,89.915601,pharmacy,
Akash Pharmecy,23.809169,90.368189,pharmacy,
Akash Plaza,23.876733,90.400689,building_commercial,
Akash Varieties store and Telecom,23.805673,90.253968,shop_supermarket,
Akash store,23.878333,90.25911,shop_yes,
Akasha Furniture,23.808855,90.364367,shop_furniture,
Akbar Cloth and Cosmetics,23.809056,90.362921,shop_convenience,
Akbar Hotel,23.712381,90.450882,restaurant,
Akbar Medical Hall,23.815361,90.370892,pharmacy,
Akbar Motors,23.712856,90.413985,shop_car_parts,
Akbar Steel House,23.714736,90.408517,shop_hardware,
Akbar Store আকবর স্টোর,23.547381,89.854107,shop_clothes,
Akbor Crockeris,23.844361,90.387417,shop_hardware,
Akbor Son's,23.751542,90.406294,shop_general,
Akbor Telecom,23.813719,90.371287,shop_money_transfer,"10:00-13:00, 14:00-00:00"
Akbor Tredurs,23.708188,90.423927,shop_hardware,
Akboria,23.760524,90.361881,shop_confectionery,
Akhi Electronics আঁখি ইলেক্ট্রনিক্স,24.07839,90.209867,shop_electronics,
Akhi Medicine Corner,23.724015,90.4001,pharmacy,
Akhi Moni General Store,23.844659,90.387937,shop_yes,
Akhi Priya Sweetmeat আখি প্রিয়া সুইটমিট,23.662491,90.455903,restaurant,
Akhi Shoe,23.848097,90.259982,shop_shoes,
Akhi Stationary,23.785423,90.425797,shop_stationery,
Akhi Store,23.785415,90.42623,shop_general,
Akhi general store,23.886976,90.262778,shop_yes,
Akhter Furnishers,23.803791,90.422774,shop_furniture,
Akhter Furniture Dhaka-Narayanganj Link Rd,23.63611,90.495065,shop_furniture,
Akhter Homeo Hall,23.706154,90.42196,shop_chemist,
Akib Cosmetics,23.848107,90.25922,shop_cosmetics,
Akib Filling Station,23.693712,90.538912,fuel,
Akid Design and Furniture,23.809209,90.361323,shop_furniture,
"Akij CNG Station Ltd., Gas station",23.84294,89.81107,fuel,
"Akij CNG filing Station, Gas station",24.241323,89.94448,fuel,
"Akij Food And Beverage Ltd., Food products supplier",23.909261,90.070932,shop_country_store,
"Akij Foundation School And College Manikganj, School",23.893546,90.033087,school,
Akij Foundation School and College,23.760111,90.353195,school,
Akik & Sifat Steel Corporation,23.71472,90.408517,shop_hardware,
Akiz Match Factory Ltd. আকিজ ম্যাচ ফ্যাক্টরি,23.575231,90.514928,pharmacy,
Akkas Ali Model School,24.214538,90.411329,school,
Akkhar Coaching Center(অক্ষর কোচিং সেন্টার),23.817012,90.373879,shop_chemist,
Aklima Store,23.998593,90.382578,shop_yes,
Akon Medical Hall,23.771962,90.347113,pharmacy,
Akon Medical Hall (আকন মেডিকেল হল),23.771991,90.347041,pharmacy,
Akondo Medicine Corner(আকন্দ মেডিসিন কর্নার),23.81674,90.374334,pharmacy,
Akorshon Bakery,23.751636,90.407079,shop_bakery,
"Akota Autos, Car repair and maintenance service",23.796704,90.340523,shop_car_repair,
Akota Shoes,23.559588,90.655794,shop_shoes,
Akota Shopping Complex একতা শপিং কমপ্লেক্স,24.07856,90.21013,shop_yes,
Akram Store,23.707434,90.421639,shop_general,
"Akran Bazar, Market",23.857598,90.312144,marketplace,
Akran High School,23.857568,90.31052,school,
Aks pharmacy,23.798224,90.364348,pharmacy,
Aktarujjaman,23.69576,90.427455,building_commercial,
Akter Gosto Bitan,23.844883,90.387648,shop_butcher,
Akter Medical,24.262687,89.923807,pharmacy,
Akter Pharmacy,24.254935,89.921563,pharmacy,
Akter Store,23.80935,90.372126,shop_general,
"Akter Workshop, Auto repair shop",24.673029,89.954321,shop_car_repair,
Akter's Shop,23.89131,90.299835,shop_tea,10:00-22:00
Akumunnessa Eye Clinic(আকুমুন্নেসা আই ক্লিনিক),23.818245,90.366055,hospital,
"Al - Haj Md. Ismail Memorial High School, Unnamed Road, Zajira",23.315174,90.377139,school,
Al -Falah Genarel Hospital & Diagnostic Center,23.721942,90.42895,hospital,
Al Alam Engineering Works আল আলম ইঞ্জিনিয়ারিং ওয়ার্কস,23.842278,90.25663,shop_car_repair,
Al Aman Restaurant,23.815329,90.366553,restaurant,
Al Amin Auto,23.789158,90.388168,shop_trade,
Al Amin Biryani Ghor,23.740371,90.433728,restaurant,
Al Amin D Showroom,23.814019,90.424652,shop_jewelry,
Al Amin Digital Studio,23.732627,90.415167,shop_photo_studio,
Al Amin Electric,23.757198,90.411515,shop_electronics,
Al Amin Electronics,23.785396,90.411273,shop_electronics,
Al Amin Enterprise,23.736285,90.389486,shop_gift,
Al Amin Haircut,23.848058,90.387722,shop_hairdresser,
Al Amin Hardware,23.758353,90.411597,shop_hardware,
"Al Amin Hotel And Restaurant, Restaurant",23.798972,90.25383,restaurant,
Al Amin Jomio Hall,23.846454,90.248217,pharmacy,
Al Amin Juyelaerge,23.865397,90.259448,shop_cosmetics,
Al Amin Laundry,23.762257,90.41442,shop_laundry,
Al Amin Medical Center,23.75985,90.365802,pharmacy,
Al Amin Medical Shop,23.759757,90.365805,pharmacy,
Al Amin Medicine Corner(আল আমিন মেডিসিন কর্নার),23.826884,90.368412,pharmacy,
Al Amin Pharmacy,23.794733,90.414678,pharmacy,
Al Amin Pharmacy,23.808789,90.378846,pharmacy,
Al Amin Pharmacy,23.554089,90.531888,pharmacy,
Al Amin Pharmacy,23.74829,90.432199,pharmacy,
Al Amin Pharmecy,23.758079,90.411534,pharmacy,
Al Amin Poultry Shop,23.815192,90.369599,shop_butcher,"PH,Mo-Su 07:00-23:00"
Al Amin Restaurant,23.796493,90.35019,restaurant,
Al Amin Rice,23.707407,90.421085,shop_general,
Al Amin Rice Agency,23.798782,90.351013,shop_department_store,
Al Amin Store,23.784355,90.412807,shop_general,
Al Amin Tea House,23.868995,90.383114,shop_tea,
Al Amin Telecom,23.785083,90.412077,shop_mobile_recharge,
Al Amin Verities Store,23.79819,90.337935,shop_variety_store,
Al Amir and Sons,23.77369,90.425563,shop_trade,
Al Amir and Sons,23.773737,90.425569,shop_trade,
Al Arabian,23.738701,90.374513,shop_confectionery,Mo-Su 09:00-22:00
Al Arabian,23.749334,90.426311,fast_food,
Al Arabian,23.81254,90.425461,cafe,
Al Arabian,23.752332,90.417988,restaurant,
Al Araf Pharma,23.770825,90.367932,pharmacy,
Al Arafa Islami Bank,23.80679,90.371058,bank,
Al Arafa Islami Bank,23.738935,90.387088,bank,
Al Arafa Islami Bank,23.738941,90.387074,atm,
Al Arafa Islamia Dakhil Madrasha,23.732787,90.50235,school,
Al Arafah Bank Limited,23.746172,90.412865,bank,
Al Arafah Islami Bank,23.729971,90.332257,bank,
Al Arafah Islami Bank,23.695467,90.47554,shop_department_store,Mo-Su 08:00-11:00
Al Arafah Islami Bank Limited,23.752624,90.392637,bank,Su-Th 10:00-16:00
Al Arafah Islami Bank Limited,23.860553,90.425549,bank,
Al Arafah Islami Bank Limited,23.867985,90.414839,bank,
Al Arafah Islami Bank Limited,23.76487,90.359005,bank,
Al Arafah Islami Bank Ltd,23.695378,90.475543,bank,Sa-Th 09:00-18:00
Al Arafah Islami Bank Ltd.,23.720881,90.373909,bank,
Al Arafah Optics,23.799286,90.354861,shop_optician,
Al Arafah Pharmacy,23.752555,90.361585,pharmacy,
"Al Arish Model Madrasa, School",24.453586,89.831276,school,
Al Azhar Liabrary & Stationary,23.757757,90.358684,shop_books,
Al Baik Restaurant and Kabab Ghor,23.851108,90.420041,restaurant,
Al Bakir Thai Aluminum,23.73235,90.413404,shop_hardware,Mo-Su 09:00-22:00
"Al Baraka Diagnostic Complex ltd, Hospital, Rahman Plaza, Shahid Faruk Sarak, Jatrabari, Dhaka",23.709819,90.433155,hospital,
Al Baraka Pharmacy,23.751163,90.432494,pharmacy,
"Al Bayt Hospital, Hospital, Dhaka - Mawa Hwy, Dhaka",23.705327,90.434538,hospital,
Al Belal Telecome,23.750794,90.409027,shop_mobile_phone,
Al Biday Store,23.795522,90.373672,shop_funeral_directors,
Al Biday Store,23.736705,90.389843,shop_yes,
Al Biruni medical hall,23.755024,90.409295,pharmacy,
Al Chemi Medical center,23.767127,90.358362,clinic,
Al Din Ideal School,23.745676,90.432289,school,
Al Fateh Diagnostics,23.758658,90.390386,hospital,
"Al Habib Academy And Pre-Cadet School, School",24.388821,89.998574,school,
Al Haj Imam Uddin High School,23.139188,90.439611,school,
Al Haj Imam Uddin High School,23.139278,90.439636,school,
Al Haramain Perfume,23.814004,90.423038,shop_perfumery,
Al Haraman Perfume,23.813526,90.423839,shop_perfumery,
Al Hasan Diamond,23.813741,90.423272,shop_jewelry,
Al Hasan Jewelers,23.794609,90.352297,shop_jewelry,
Al Hassan Diamond Gallery,23.782944,90.417023,shop_jewelry,
"Al Haz Abdul Ahad Daibetes Center, Hospital",23.943012,90.27163,hospital,
Al Helal Furniture,23.793712,90.387805,shop_furniture,
Al Helal General Store,23.783152,90.426625,shop_general,
Al Helal Restora,23.778408,90.37697,restaurant,sunrise-sunset
Al Hera Diagnostic Pvt. Ltd,23.809331,90.368216,clinic,
Al Hijab,23.750706,90.409137,shop_tailor,
Al Hossain & Son's,23.714572,90.407385,shop_hardware,
"Al Hossain Filling Station, Dhaka - Mawa Hwy, Dhaka",23.707934,90.43488,fuel,
Al Hossain Girls High School,23.749513,90.366448,school,
Al Hudai Balika Madrasa,23.748188,90.426952,school,
Al Ihsan General Hospital,24.319755,90.170529,clinic,
"Al Ihsan Hospital, Hospital",23.917753,90.393581,hospital,
Al Islam Pharma,23.749165,90.432945,pharmacy,
Al Islamia Sweets,23.73661,90.386474,shop_confectionery,
"Al Jabed Hotel And Restaurant, Restaurant",23.802891,90.227877,restaurant,
"Al Jaber Hotel & Restaurant, Kanthalbari",23.40097,90.241284,restaurant,
Al Jainal Jewelry Plaza অলংকার প্লাজা,23.610774,90.504425,shop_jewelry,
"Al Jihan Medical Hall, Pharmacy",23.957323,90.379615,pharmacy,
Al Kaderia Restaurant,23.752179,90.416905,fast_food,
Al Khan Jewelers,23.795014,90.35221,shop_jewelry,
Al Madina,23.216433,89.699727,shop_chemist,
Al Madina Aluminum,23.850009,90.387726,shop_houseware,
Al Madina Biriany House,23.602608,89.83541,restaurant,
Al Madina General Store,23.822629,90.367655,shop_yes,
Al Madina General Store,23.810314,90.365058,shop_variety_store,
Al Madina Harbal,23.793078,90.387646,pharmacy,
Al Madina Hardware,23.714331,90.411409,shop_hardware,
Al Madina Hotel and Restarurant,23.817159,90.046168,restaurant,
Al Madina Marketing Group,23.21495,89.697087,shop_chemist,
Al Madina Masjid Urban Slum Ananda School,23.784622,90.411367,school,
Al Madina Masjid Urban Slum Ananda School,23.784638,90.411365,school,
Al Madina Medicine Corner,23.762837,90.367178,pharmacy,
Al Madina Pharmacy,23.769099,90.368662,pharmacy,
Al Madina Pharmacy,23.769574,90.368457,pharmacy,
Al Madina Pharmacy,23.794376,90.414683,pharmacy,Mo-Su 00:00-12:00
"Al Madina Pharmacy, Pharmacy",23.935398,90.278766,pharmacy,
Al Maha Diagnostic Center & Medical Center,23.733649,90.415646,clinic,24/7
Al Manar Hospital Pharmacy,23.755821,90.363511,pharmacy,
Al Markajul Islami Hospital,23.770874,90.366682,hospital,
"Al Medical Pharma, Pharmacy, Nazimuddin Rd, Charkarpul",23.723704,90.4007,pharmacy,
Al Modina Bakery,23.693944,90.434523,shop_bakery,
Al Modina Crockeris,23.84665,90.387846,shop_pottery,
Al Modina Departmental Store,23.844737,90.389074,shop_yes,
Al Modina Hotel and Restaurant,23.785239,90.406759,restaurant,
Al Modina Ladies Tailor,23.753362,90.407791,shop_tailor,
Al Modina Laundry,23.756755,90.407674,shop_laundry,
Al Modina Mobile Shop,23.945608,90.38269,shop_electronics,
Al Modina Pharmacy,23.737851,90.435713,pharmacy,
Al Modina Pharmacy,23.810304,90.42169,pharmacy,
"Al Modina Pharmacy, Pharmacy",23.714471,90.429494,pharmacy,
Al Modina Traders,23.843778,90.387321,shop_hardware,
Al Modina enterprise,23.733977,90.382612,shop_confectionery,
Al Mohammadia Co,23.748811,90.386238,shop_hardware,
Al Mokka Pharmacy(আল মক্কা ফার্মেসী),23.828007,90.367982,pharmacy,
Al Musafir,23.814374,90.366389,shop_trade,
Al Muslim Hotel & Restaurant,23.718834,90.405754,restaurant,
Al Muslim Hotel and Restaurant আল মুসলিম হোটেল রেস্টুরেন্টে,23.616392,90.333194,restaurant,
Al Muzahid Hotel And Restaurant আল মুজাহিদ হোটেল এবং রেস্টুরেন্ট,24.082505,90.202647,restaurant,
Al Nahian High School,23.801078,90.35605,college,
Al Noor Aquarium,23.736657,90.389806,shop_fishing,
Al Noor Diagonestics Center,24.437766,90.780068,clinic,
Al Noor Eye Hospital ( Permanent Building ),23.752045,90.358039,hospital,
Al Noor Furniture,23.738531,90.388222,shop_furniture,
Al Noor Metal House,23.735427,90.388806,shop_gift,
Al Noor Pharma,23.782925,90.352331,pharmacy,
Al Noor Pharmacy,23.751805,90.366782,pharmacy,
Al Noor Pharmacy,23.81228,90.369697,pharmacy,
Al Nur Dray Cleaner,23.751745,90.405492,shop_dry_cleaning,
Al Nur Fashion,23.611967,90.482209,shop_clothes,
Al Nur Furnishing,23.73865,90.388418,shop_bathroom_furnishing,
Al Nur Hardware and Electronic Store,23.808418,90.378657,shop_electronics,
"Al Qaba Enterprise, Dhaka - Mawa Hwy, Kalakandi",23.66124,90.361232,shop_yes,
Al Qur'an International Academy,23.750682,90.432529,school,
Al RAzi Hospital Building,23.759049,90.390248,hospital,
Al Rabbi Pharmacy(আল রাব্বি ফার্মেসি),23.821317,90.371072,pharmacy,
Al Rafi Confectionary,23.709202,90.441065,shop_confectionery,
Al Rafi Hospital Ltd.,23.78511,90.56837,hospital,
"Al Rafi engineering works, Wholesaler",23.7967,90.254897,shop_wholesale,
Al Raji Medicative Store,23.745914,90.385195,pharmacy,
Al Raju Jewellers,23.73374,90.384874,shop_jewelry,
Al Razi Hospital (Ext),23.759208,90.390086,hospital,
Al Razi Hospital Complex,23.759143,90.390159,hospital,24/7
Al Razi optics,23.765658,90.358866,shop_optician,
Al Rof Rof Furniture,23.799557,90.363529,shop_furniture,
Al Sabah Academy,23.851611,90.417432,school,
Al Safi Pathology,24.441941,90.776714,clinic,
Al Sami Drug House,23.769546,90.368481,pharmacy,
Al Sami Hospital,23.780383,90.426123,hospital,
Al Shefa Medical Hall(আল শেফা মেডিকেল হল),23.819962,90.371248,pharmacy,
Al Shefa Medicine Centre,23.76077,90.35714,pharmacy,
Al Shefa Pharmacy,23.773878,90.355539,pharmacy,
Al Shifat Store,23.7828,90.430294,shop_general,
Al Sifat Restaurant,23.73268,90.415187,restaurant,Mo-Su 07:00-22:00
Al Sultan Petrol Pump,23.712062,90.518548,fuel,
Al Tasnim Medical Centre,23.767057,90.358382,pharmacy,
Al Towfiqi Pharmacy & Consultant,24.173792,90.656313,pharmacy,
Al Wajjan Optics,23.812243,90.424462,shop_optician,
Al amin Electronics,23.885177,90.261765,shop_electronics,
Al arafat hospital,23.712125,90.40132,hospital,
Al helal Rice Agency,23.712522,90.403516,shop_yes,
Al kemi Medical Centre,23.767165,90.358283,pharmacy,
Al khidma Madical Hall (আল খিদমাহ্ মেডিকেল হল),23.771776,90.34946,pharmacy,
"Al madina, Auto repair shop",24.469994,89.974382,shop_car_repair,
Al modina jewelers,23.784884,90.410398,shop_jewelry,
"Al razi clinic and hospital, Hospital",24.33501,89.923855,hospital,
"Al sihad dewan, College",23.814551,90.079171,college,
Al- Ikhwan Madrasha,23.821526,90.382126,school,
"Al- Khedmah Model Madrasah, School",23.85668,90.26027,school,
Al- Madina Tailors,23.8087,90.363744,shop_tailor,
Al-Ahsan Diagnostic Hospital,23.718402,90.372743,hospital,
Al-Amin Bedding Store,23.806397,90.37306,shop_bed,
Al-Amin Departmental Store,23.81005,90.372675,shop_department_store,
Al-Amin Hardware Store আল-আমিন হার্ডওয়্যার ষ্টোর,23.895716,90.408844,shop_yes,
Al-Amin Jewelers আল-আমিন জুয়েলার্স,23.619652,90.501638,shop_jewelry,
Al-Amin Medicine Corner,23.793964,90.340523,pharmacy,
Al-Amin Restora,23.850525,90.409051,restaurant,
"Al-Amin Senetary Center, Shopping mall",24.632604,89.975608,shop_mall,
Al-Amin Snacks,23.750346,90.40881,fast_food,
"Al-Amin Store, Dhaka Mawa Road, Dhaka",23.694504,90.435932,shop_yes,
Al-Amin Super Market আলামীন সুপার মার্কেট,23.588789,89.834739,marketplace,
Al-Amin Sweets And Confectionary আল-আমিন সুইটস এন্ড কনফেকশনারী,23.901827,90.412433,shop_yes,
Al-Amin Tailor,23.727252,90.379958,shop_clothes,
Al-Arabian Cake & Sweets,23.763235,90.362271,shop_confectionery,
"Al-Arafa Pharmacy, Pharmacy",23.935281,90.38692,pharmacy,
Al-Arafah Islami Bank,23.740385,90.433193,bank,
Al-Arafah Islami Bank LTD,23.73274,90.367579,bank,
Al-Arafah Islami Bank LTD,23.732642,90.367807,bank,
Al-Arafah Islami Bank Limited,23.806852,90.370942,bank,
Al-Arafah Islami Bank Limited,23.933557,90.707616,bank,
Al-Arafah Islami Bank Limited (AIBL),23.774729,90.364397,atm,
Al-Arafah Islami Bank Limited ATM,23.864883,90.40046,bank,
"Al-Arafah Islami Bank Limited, Bank",23.796144,90.353646,bank,
"Al-Arafah Islami Bank Limited, Dhaka - Mawa Hwy, Kalakandi",23.659702,90.360446,bank,
"Al-Arafah Islami Bank Limited, New Elephant Rd, Dhaka",23.738898,90.387169,bank,
"Al-Arafah Islami Bank Ltd, Dhaka - Mawa Hwy",23.632329,90.342606,bank,
Al-Arafah Islami Bank Ltd.,23.812782,90.425913,bank,
Al-Arafah Islamic International School & College,23.72645,90.367261,school,
Al-Arafat Pharmacy,23.75996,90.410988,pharmacy,
"Al-Baraka Hospital, Hospital",24.277624,90.394619,hospital,
"Al-Baraka Model Hospital, Keraniganj",23.702319,90.397187,hospital,
Al-Barakah Store,23.783441,90.427347,shop_general,
Al-Beruni Hall Canteen,23.886455,90.265189,restaurant,
"Al-Ehsan Digital Diagnostic Centre, Hospital",23.845471,89.821498,hospital,
Al-Faruk Academy,23.933722,90.72885,school,
Al-Fatha Grameen Phone Center,23.702645,90.419409,shop_Grameen_Phone_Center,
Al-Gazzali High School,23.74277,89.646949,school,
Al-Habibi Corner,23.820067,90.365257,fast_food,
Al-Haj Abdul Hasem Khan UCEP School,23.74735,90.361342,school,
Al-Haj Shahabuddin Ahmed Adarsha Accadamy,23.846042,89.410555,school,
Al-Hajj Rezaul Haque Women's College,24.158593,90.658449,college,
"Al-Hakim eye hospital and Phaco Center, Hospital, Haque Plaza, Dhaka",23.707011,90.434512,hospital,
Al-Hamd Benaroshi,23.811312,90.36906,shop_clothes,
Al-Haz Ramjan Ali Memo. High School,24.040583,89.930351,school,
Al-Helal Hospital,23.802763,90.370642,hospital,
Al-Hera,23.756596,90.369934,restaurant,
"Al-Hera CNG And Filling Station, Gas station",23.941684,90.383625,fuel,
Al-Hera School,23.780624,90.426433,school,
Al-Hera medicine Corner,23.810139,90.372672,pharmacy,
Al-Hossain Filling Station,23.70411,90.435482,fuel,
Al-Joynal Plaza আল-জয়নাল প্লাজা,23.614967,90.504348,shop_mall,
"Al-Jumah Hotel And Restaurant, Restaurant",24.163281,90.017971,restaurant,
Al-Karim General Hospital limited,23.713186,90.430621,hospital,
Al-Khidmah Medicine Korner,23.699556,90.424435,pharmacy,
Al-Khidmah Pharmacy,23.782895,90.431464,pharmacy,
Al-Madina And Karim Bhuiyan Wholesale Market,23.93795,90.270664,shop_wholesale,
"Al-Madina Birani House, Bashbari Lane, Chowrasta - Joydebpur Rd, Dhaka",23.714213,90.40695,restaurant,
Al-Madina Electronic Store,23.823609,90.353708,shop_electronics,08:00-20:00
Al-Madina Furniture,23.851461,90.417504,shop_furniture,
Al-Madina General Store,23.851569,90.415789,shop_convenience,
Al-Madina Optics,23.851406,90.412436,shop_optician,
Al-Madina Pharmacy(আল-মদিনা ফার্মেসী),23.827191,90.370611,pharmacy,
Al-Madina Varieties Store,23.79826,90.337463,shop_convenience,
"Al-Madrasatu Littahfizil Qurani Wassunnah, Religious school",23.996641,90.382283,school,
Al-Makka Hotel & Restaurant,23.976413,90.73092,restaurant,
Al-Modina Banijjo Bitan,23.785663,90.367159,shop_clothes,
"Al-Modina Hotel And Restaurant, Restaurant",23.916323,90.096138,restaurant,
Al-Modina Telecom,24.219921,90.413048,shop_yes,
Al-Mokkah Jewellaries,23.783516,90.37564,shop_jewelry,
Al-Noor Diagnostic,23.549983,90.389094,hospital,
Al-Noor Eye Hospital,23.75381,90.365725,hospital,
"Al-Noor Eye Hospital, Hospita",23.753814,90.365772,hospital,
Al-Nur General Store,23.789873,90.36647,shop_general,
"Al-Rafi Electronics, 29/A baniyanagor, Electronics store, Dholaikhal Rd, Dhaka",23.708327,90.420003,shop_electronics,
Al-Razzaque Restaurant,23.718272,90.40866,restaurant,Mo-Su 06:00-24:00; PH closed
Al-Riyadh Glass House,23.786748,90.399373,shop_yes,
Al-Robin Restaurant and Kabab,23.783441,90.374969,restaurant,
Al-Sami Super Market,24.125517,90.3878,shop_supermarket,
Al-Shefa Hospital,24.055034,90.977537,hospital,
"Al-Shifa Homeo Hall, Homeopathic pharmacy",23.997754,90.384069,pharmacy,
Al-Shifa Homeo Pharmacy,24.097766,90.158007,pharmacy,
"Al-Taif Hotel And Restaurant, Restaurant",23.916444,90.159398,restaurant,
Al-Younuch Moshla Center,23.693381,90.426659,shop_mills,08:00-21:00
"Al-Zafran Juice Bar ~ Nazira Bazar, Kazi Alauddin Road, near bangabazar, Dhaka",23.722525,90.405691,fast_food,
Al-amar,23.752869,90.369194,restaurant,
Al-amin Enterprise,23.700014,90.422007,shop_furniture,
Al-amin Madrasha,23.944081,90.27274,school,
Al-amin Medical Hall,23.783474,90.375174,pharmacy,
Al-amin Optics,23.789426,90.366553,shop_optician,
Al-amin Refrigeration Service Centre,24.439487,89.984949,shop_electronics,
Al-amin electronics আল আমিন ইলেকট্রনিক্স,23.903761,90.414226,shop_electronics,
Al-bar Pharmacy(আল- বার ফার্মেসি),23.819765,90.371328,pharmacy,
Al-haz Nurul Islam Molla Shopping Complex,23.813926,90.594323,shop_supermarket,
Al-khidmah pharmacy(আল-খিদমাহ্ ফার্মেসি),23.824551,90.367395,pharmacy,
Al-madina Pharmacy(আল-মদিনা ফার্মেসী),23.826595,90.369938,pharmacy,
Al-modina Hotel,23.801465,90.584519,restaurant,
AlFresco,23.753027,90.369185,restaurant,
Al_amin jewellery,23.759003,90.413171,shop_jewelry,
Aladdin,23.811041,90.36847,restaurant,
Alalhor dan store,23.846473,90.244647,shop_yes,
Alam Arcade,23.795387,90.415123,building_commercial,
Alam Brothers,23.730511,90.416282,shop_trade,
Alam CNG,23.917475,90.39444,fuel,
Alam Cabin আলম কেবিন,23.619842,90.501237,restaurant,
Alam Clothe Store,23.851508,90.415127,shop_clothes,
Alam Electronics,23.879063,90.259387,shop_electronics,
"Alam Furnitures, Furniture store",23.910891,90.32015,shop_furniture,
Alam General Store,23.75655,90.411306,shop_convenience,
Alam Medicine Corner,23.214027,89.696642,pharmacy,
Alam Pharma,23.772863,90.366981,pharmacy,
Alam Pharmacy,23.760375,90.36193,pharmacy,
Alam Pharmacy,23.848102,90.25871,pharmacy,
Alam Pharmacy,23.812425,90.425022,pharmacy,
Alam Store,23.782926,90.411576,shop_general,
"Alam Super Market, Khaja Mainuddin Chisti Rd, Dhaka",23.692435,90.43386,marketplace,
Alam Tailors,23.758408,90.411965,shop_tailor,
Alam Tea Store,23.214546,89.712173,shop_tea,
Alam Telecom,23.812428,90.425036,shop_electronics,
Alam bagh complex,23.77363,90.425533,building_commercial,
Alam super Shop,23.70141,90.42772,shop_yes,
Alamgir Bedding,23.747483,90.385949,shop_bed,
Alamgir Cosmetics Store,23.755853,90.415316,shop_cosmetics,
Alamgir Furniture,23.767305,90.360758,shop_furniture,
Alamgir General Store,23.865201,90.259509,shop_yes,
Alamgir General store,23.734046,90.383127,shop_yes,
Alamgir Pharmacy,23.792205,90.388111,pharmacy,
Alamgir Shoe,23.924178,90.261757,shop_shoes,
Alamgir Store,23.783167,90.41031,shop_general,
"Alamgir Tailors, Supermarket",23.804392,90.189054,shop_supermarket,
Alamgir Tea Store,23.283746,90.344072,shop_yes,
"Alamin Electric Andmachinarige,Electrical equipment supplier",23.936488,90.274147,shop_electronics,
Alamin Electronics,23.742068,90.392195,shop_electronics,"Mo,We-Su 10:00-20:00; Tu off"
Alamin Hafizia School,23.734855,90.361712,school,
Alamin Store,23.711088,90.424097,shop_yes,
Alamin Store,23.784969,90.412082,shop_general,
Alamin Sweets And Bakery আলামিন মিষ্টি ও বেকারি,23.893503,90.403568,restaurant,
Alamin Tea,23.78321,90.409836,shop_tea,
Alamin Telecom,23.782926,90.411646,shop_general,
Alamin shoes Export Quality,23.785385,90.367267,shop_shoes,
Alangkar Niketan,23.732435,90.383937,shop_jewelry,"Mo, We-Su 09:00-22:00"
Alauddin Electrinics,23.758354,90.411671,shop_electronics,
Alauddin General Store,23.711123,90.425025,shop_convenience,
Alauddin Homeo Pharmacy আলাউদ্দিন হোমিও ফার্মেসী,23.847589,90.255949,pharmacy,
Alauddin Sweetmeat,23.716186,90.396009,restaurant,
Alauddin Tea Store,23.782415,90.372376,shop_tea,
Alauddin Telecom & Servicing,23.785397,90.41137,shop_mobile_recharge,
Alco Aluminium,23.806425,90.366462,shop_hardware,
Alco aluminium,23.818638,90.365632,shop_furniture,
"Aleam Auto servise center, Auto repair shop",23.853244,89.872424,shop_car_repair,
Aleef furniture,23.78698,90.377049,shop_furniture,
Aleem Harbal Centre,23.828946,90.368987,shop_herbalist,
Alek motors,23.707795,90.412602,shop_car_parts,
Alekchan Rice,23.712375,90.403487,shop_yes,
Alekjan Girls High School And College,23.989219,90.360806,college,
Alexander bakery আলেক্সান্ডার বেকারি,23.616893,90.503899,shop_bakery,
Aleya Islam General Hospital,23.717169,90.371998,hospital,
Aleya Kamal CNG Station,23.796063,90.264444,fuel,
"Aleya Kamal CNG Station, Gas station",23.796527,90.264207,fuel,
Alfa Medicine Corner,23.771616,90.363691,pharmacy,
Alfa Medico,23.774485,90.364907,pharmacy,
Alfa Pharmacy,24.253956,89.915411,pharmacy,
Alfat Medical hall,24.44199,90.77669,pharmacy,
Alfaz Store,23.700091,90.422415,shop_general,
Algi Bazar (Market),23.994753,90.947021,marketplace,
Alhaj Abdul Mannan Degree College,23.989972,90.238247,college,
Alhaj Afser Korim Plaza আলহাজ্ব আফসার করিম প্লাজা,23.662291,90.456092,marketplace,
Alhamdulillah Drug House(আলহামদুলিল্লাহ ড্রাগ হাউজ),23.826481,90.369455,pharmacy,
Alhamdulillah Kebab Ghar,23.714179,90.405986,restaurant,Mo-Su 10:00-22:00
Alhaz Pharmacy আলহাজ্ব ফার্মেসী,24.095556,90.117875,pharmacy,
Ali & Co. Tailors,23.704079,90.421835,shop_tailor,
Ali Ahmed High School( College),23.746278,90.434586,college,
Ali Asgar Hospital,23.707836,90.423608,hospital,
Ali Baba Door,23.876856,90.400828,shop_hardware,
Ali Baba Sweets,23.792485,90.374912,shop_confectionery,
Ali Baba Sweets,24.276857,90.394123,restaurant,
Ali Chap Kebab Ghar,23.816324,90.366226,restaurant,
Ali Complex,24.250787,89.917025,building_commercial,
Ali Driay Food,23.785281,90.42635,shop_confectionery,
Ali Enterprise,23.707427,90.421227,shop_trade,
Ali Enterprise sewing machine store,23.936879,90.273066,shop_tailor,
"Ali Filling Station, Gas station",24.011504,90.314807,fuel,
Ali General Store,23.785401,90.411345,shop_general,
Ali Homeo Hall,23.763421,90.355813,pharmacy,
Ali Medical Store(আলী মেডিকেল ষ্টোর),23.827868,90.366049,pharmacy,
Ali Nogor Bazar,23.715691,90.368847,marketplace,
Ali Point আলী পয়েন্ট,24.16483,90.42811,shop_clothes,
Ali Rex,23.734834,90.41699,shop_variety_store,
Ali Stationary And Library,23.785423,90.425872,shop_books,
Ali Store,23.757649,90.370945,shop_grocery,
Ali Tea House,23.773693,90.361619,shop_tea,
Ali Tea Stall,23.700108,90.422125,shop_tea,
Ali Tea Store,23.798247,90.387149,shop_tea,Mo-Su 07:00-23:00
Ali Trading,23.71558,90.406859,shop_trade,"Mo, We-Su 09:00-21:00"
Ali restaurant,23.611521,90.504644,restaurant,
"AliExpress Tangail, Shopping mall",24.454121,89.978947,shop_mall,
Alia Madrasa,24.2459,89.912804,college,
Alibaba Door,23.772846,90.425856,shop_furniture,
Alibaba Sweets,23.977179,90.380899,shop_confectionery,
Alibaba Sweets,23.847131,90.256993,shop_confectionery,
Alibaba Sweets,23.911492,90.261017,shop_confectionery,
Alibaba Sweets,23.785644,90.425568,shop_pastry,
Alibaba Sweets আলীবাবা সুইটস্,23.906875,90.398482,shop_yes,
Alif Book Store and Stationary,23.80914,90.364239,shop_stationery,
Alif Computer,23.79873,90.352919,shop_computer,
Alif Corner,23.878627,90.259237,shop_variety_store,
"Alif Departmental Store And Confectionery, General store, South Jatrabari, Dhaka",23.705654,90.434616,shop_yes,
Alif Drug House(আলিফ ড্রাগ হাউজ),23.826425,90.362752,pharmacy,
Alif Electronics,23.84901,90.387761,shop_electronics,
Alif Enterprise,23.855303,90.413967,shop_convenience,
Alif Enterprise,23.808298,90.361015,shop_convenience,
Alif Enterprise & Crockeris,23.734406,90.383998,shop_electronics,
Alif Enterprise আলিফ এন্টারপ্রাইজ,23.846492,90.248809,shop_mobile_phone,
Alif Furniture,23.700484,90.420845,shop_furniture,
Alif Furniture,23.847377,90.255903,shop_furniture,
Alif Garments,23.705862,90.422664,shop_clothes,
Alif Genarel Store,23.698421,90.422409,shop_yes,
Alif General store,23.800817,90.362901,shop_convenience,
Alif General traders,23.783981,90.410192,shop_general,
Alif Hear Cut,23.846394,90.248198,shop_beauty,
Alif Hijab and Fashion,23.750494,90.409032,shop_clothes,
Alif Homeo Hall,23.807032,90.369939,shop_herbalist,
Alif Homeo Pharmacy,23.81134,90.367548,pharmacy,
Alif Homoeo Hall,23.814924,90.595428,pharmacy,
"Alif Hotel & Restaurant, Chunkutia Chowrasta, Keraniganj, Dhaka",23.695466,90.399089,restaurant,
Alif International School(আলিফ ইন্টারন্যাশনাল স্কুল),23.82608,90.368546,school,
Alif Jori House,23.738734,90.390336,shop_yes,
Alif Leather Cornar,23.738931,90.387377,shop_leather,10:00-20:00
Alif Market আলিফ মার্কেট,23.8473,90.254067,marketplace,
Alif Medical Hall,23.766354,90.417951,pharmacy,
Alif Motors Limited,23.984265,90.381181,shop_motorcycle,
Alif Motors আলিফের মটরস,23.841812,90.256814,shop_car_repair,
Alif Pharma,23.847772,90.2565,pharmacy,
Alif Pharma,23.782485,90.372404,pharmacy,
Alif Pharmacy(আলিফ ফার্মেসী),23.815869,90.368228,pharmacy,
Alif Printers,23.731192,90.415852,shop_stationery,Mo-Su 09:00-22:00
Alif Restaurant and Juice Bar,23.775777,90.411939,fast_food,
Alif S S Metal,23.714587,90.408374,shop_hardware,
Alif Store,23.76005,90.410885,shop_gift,
Alif Super Market,22.964721,89.815871,marketplace,
Alif Super Shop,23.695469,90.475472,shop_general,Mo-Su 09:00-21:00
Alif Surgical,23.819071,90.364958,pharmacy,
Alif Traders,23.783703,90.405849,shop_mobile_recharge,
Alif Video Games(আলিফ ভিডিও গেমস),23.820814,90.372961,shop_video_games,
Alif digital shop,24.161652,90.266366,shop_mall,
Alif genarel store,23.991252,90.243815,shop_yes,
Alif leather,23.738948,90.387175,shop_leather,
Alif store,23.991372,90.243869,shop_yes,
Alifa General Store,23.812387,90.369454,shop_yes,
Alifa Metal,23.736613,90.389769,shop_gift,
Alijan J.M. Academy,23.918469,90.718731,school,
Alim International School(আ\'লিম ইন্টারন্যাশনাল স্কুল),23.826746,90.368397,school,
"Alipur Govt. Primary School, Shibchar",23.328356,90.204844,school,
Alit Ideal School,23.752085,90.423399,school,
Alkaderia Restaurant,23.759258,90.418336,restaurant,Mo-Su 06:00-23:00
All Baraka Hotel & Restaurant,23.806788,90.368363,restaurant,"PH,Mo-Su 07:00-23:30"
All In One CNG Filling Station,23.758664,90.399124,fuel,
All Rounder Sports,23.806334,90.362474,shop_sports,
All Style Tailors,23.809641,90.363645,shop_tailor,
All Vai & Sanitary,23.710235,90.424164,shop_hardware,
All in One Enterprise,23.850049,90.387655,shop_yes,
All-Emdad Panjeri Tailor & Fabricx,23.6984,90.422427,shop_tailor,
All-Islam Pre-Cadet High School,23.711339,90.376949,school,
All-One,23.726448,90.383672,restaurant,
All-amin Power Generation,23.698684,90.435505,shop_yes,
Alla Newaj Khairu High School,23.772365,89.660898,school,
Allaahar dan General Store,23.783728,90.40605,shop_general,
Allah AR Dan Hotel And Resturent,23.783518,90.344062,restaurant,
Allah Bharasha CNG & Petrol Station Station,23.74442,90.534909,fuel,
"Allah Karim Cadet Madrasa, Religious school",23.807583,90.341688,school,
Allah Karim General store,23.782004,90.368432,shop_convenience,
Allah Voesha Saloon,23.783349,90.431359,shop_hairdresser,
Allah Vorosa CNG Refueling Station,23.744297,90.534645,fuel,
Allah Vorosha General Store,23.755652,90.41132,shop_general,
Allah Vorosha Variety Store,24.105434,90.250873,shop_yes,
Allah r dan Shahidul meat Shop,23.751459,90.406158,shop_butcher,
Allah'r Daan Vai Vai Hotel,23.82361,90.353643,restaurant,08:00-10:00
Allah'r Dan Biriyani House,23.807869,90.361326,restaurant,
Allah'r Dan Enterprise,23.808981,90.362932,shop_gas,
Allah'r Dan Kabab and Biryani House,23.799943,90.350759,restaurant,09:00-21:00
Allah'r Dan Steel Furniture,23.808475,90.361559,shop_furniture,
Allahae Dan Enterprise,23.809987,90.371863,shop_clothes,
Allahar Dan Biriyani House,23.70122,90.42805,restaurant,
Allahar Dan Cosmitick And Telecom,23.812276,90.249904,shop_mobile_phone,
Allahar Dan Electric,23.809176,90.375148,shop_electrical,
Allahar Dan Kobiraj,23.879092,90.259615,pharmacy,
Allahar Dan Laundry,23.752728,90.40783,shop_laundry,
"Allahar Dan Phermacy, Hospital",23.787118,90.329603,hospital,
Allahar Dan Restaurant,23.733972,90.383235,restaurant,
"Allahar Dan Steel And Furniture, Furniture store",24.61457,90.034254,shop_furniture,
"Allahar Dan Store, Grocery store",23.991613,90.348998,shop_yes,
Allahardan Banijjoloi,23.798322,90.350414,shop_department_store,
Allahardan store,23.878749,90.259467,shop_yes,
Allahdan Madecal Hall,23.7667,90.350876,pharmacy,
Allaher Dan Engineering Works,23.708798,90.420695,shop_hardware,
"Allahhor Dan Restaurant chotpoti and phoska, Restaurant",23.79868,90.248145,restaurant,
Allahor Dan Enterprise,23.699561,90.42476,shop_general,
Allahor Dan Enterprise,23.717065,90.406865,shop_hardware,"Mo, We-Su 09:00-21:00"
Allahor Dan Enterprize,23.755637,90.407418,shop_department_store,
Allahor Dan Pharmacy,23.751679,90.365187,pharmacy,
Allahor Dan Store,23.732436,90.413227,shop_yes,Mo-Su 08:00-23:00
Allahr Daan Chicken House,23.854853,90.412504,shop_butcher,
Allahr Daan Furniture,23.783281,90.373769,shop_furniture,
Allahr Daan Hotel,24.324445,90.933679,restaurant,
Allahr Daan Kabab and Biriyani House,23.795186,90.352086,fast_food,
Allahr Dan Auto,23.787948,90.388413,shop_trade,
Allahr Dan Biryani,23.812419,90.424999,restaurant,
"Allahr Dan Biryani House, Hazi Khorshed Ali Sarder Road, East Jurain, Dhaka,",23.693625,90.435558,restaurant,
Allahr Dan Pharmacy,23.819095,90.371537,pharmacy,
Allahr Dan Pharmacy,23.819163,90.371671,pharmacy,
Allahr Dan Pharmacy,23.819188,90.371897,pharmacy,
Allahr daan Hotel & Restaura,23.851515,90.417338,restaurant,
Allahr doya general store,23.755678,90.409456,shop_convenience,
Allar Daan Bostro Bitan,23.754398,90.407718,shop_clothes,
Allar Dan Restaurant,23.695397,90.475684,restaurant,Mo-Su 07:00-21:00
Allied Residential School,23.857843,90.261043,school,
"Alloa Bhavani Government Primary School, School",24.2166,89.896606,school,
Almas General Store,23.742485,90.382319,shop_general,
Almas General Store আলমাস জেনারেল স্টোর,23.953727,90.381531,shop_yes,
"Almas Oil and Petrol Store, Shariatpur Road, Zajira",23.405568,90.236946,fuel,
Almas Point,23.615271,90.501583,marketplace,
Almas Super Shop,23.780065,90.416995,shop_supermarket,
Almas Talecom,23.801962,90.261657,restaurant,
Almas and others,23.744133,90.373261,shop_supermarket,
Almodina Pharma And Departmental Store,23.740901,90.39022,shop_department_store,11:00-22:00
Alo Clinic,23.828513,90.356915,clinic,
Aloja Drugs,23.602656,89.835642,pharmacy,
Alok Healthcare,23.79434,90.353342,hospital,
Alok health Care(আলোক হেলথ কেয়ার),23.823468,90.364055,hospital,
Alokita Mission School(আলোকিত মিশন স্কুল),23.82676,90.359045,school,
Alokito Mission School,23.827244,90.358551,school,
Alom Cycle Store আলম চক্র স্টোর,23.855063,90.260137,shop_bicycle,
Alom General Store,23.846479,90.387976,shop_yes,
Alom General Store,23.844672,90.388761,shop_yes,
Alom Grocery Store,23.848716,90.387477,shop_yes,
Alom Mini Super Shop,23.75612,90.443993,shop_yes,
"Alom Motors, Motorcycle Parts Store",24.604399,90.027056,shop_motorcycle_repair,
Alom Stationery and Photocopy,23.797145,90.364989,shop_stationery,
Alom Store,23.760188,90.411022,shop_tea,
Alom Store আলম স্টোর,23.412364,90.178623,shop_yes,
Alomer Vater Hotel,23.817427,90.356112,restaurant,
Alomgir Store,23.757959,90.411395,shop_department_store,
Aloron,23.797127,90.365004,shop_gift,
Aloron School & College,23.720488,90.373703,school,
Alpha Door,23.771117,90.424899,shop_doors,
Alphabyte,23.738875,90.385485,shop_computer,
Alpona Plaza,23.73862,90.384349,building_commercial,
Alshefa Pharmacy 2,23.772762,90.354516,pharmacy,
Alta Plaza,23.747284,90.380305,building_commercial,
"Altab Hussain Khan Primary School, Unnamed Road, Mawa, Zazira",23.414825,90.287802,school,
Altaf & Son's,23.715376,90.406862,shop_trade,"Mo, We-Su 09:00-21:00"
Altaf Medical Hall,24.437247,90.780821,pharmacy,
Alu-Bhorta-Daal-Bhat,23.785551,90.367371,restaurant,
Aluminum Work,23.846648,90.387829,shop_houseware,
Alvi Medical Hall(আলভী মেডিকেল হল),23.829948,90.362763,pharmacy,
Alvi electronics,23.783756,90.377683,shop_electronics,
Alvira Construction,23.793488,90.413041,building_commercial,
Amader adda Coffee shop,23.417717,90.257644,cafe,
Amal,23.721706,90.425135,fast_food,
Aman Enterprise,23.716366,90.406845,shop_trade,"Mo, We-Su 09:00-21:00"
Aman Sorkar Bazar,24.452891,90.680374,marketplace,
Aman traders,23.884463,90.261661,shop_trade,
AmanMotors,23.881213,90.400387,shop_convenience,
Amanah Agro,23.852899,90.411895,shop_department_store,
Amanat Trade International,23.741475,90.420727,shop_car_repair,
Amania Bakery,23.71427,90.4062,shop_bakery,
Amar Maa Store,23.806812,90.360259,shop_convenience,"PH,Mo-Su 08:00-23:00"
Amar Safety & Security,23.755488,90.417871,shop_security,
Amar Travels,23.783769,90.377592,shop_travel_agency,
Amarpc.com,23.738875,90.385466,shop_computer,
Amartech,23.738865,90.386233,shop_electronics,
Amas Trading Co.,23.861536,90.393231,shop_yes,
Amazing Discount,23.742158,90.409478,shop_toys,
"Ambagicha Govt primary school, Ambagicha College Rd, Keraniganj",23.703588,90.399354,school,
Ambar Biryani Pot,23.710209,90.417849,restaurant,Mo-Su 09:00-23:00
Amber Ali Market অ্যাম্বার আলী মার্কেট,23.935352,90.386371,marketplace,
Amber life style,23.752986,90.369141,building_commercial,
Ambia Banu Complex,23.69872,90.444767,shop_mall,
Ambience Architects & Engineers,24.24662,89.915306,building_commercial,
Ambition International School,23.776485,90.351882,school,
"Ambition high school, Naodoba",23.403074,90.281077,school,
Ambon Complex,23.780705,90.400724,building_commercial,
Ambor,23.815297,90.366566,shop_clothes,
Ambor Ali Sarker Market অাম্বর অালী সরকার মার্কেট,23.935198,90.386435,marketplace,
Ambrasia,23.741966,90.410192,restaurant,
Amej,23.797158,90.364968,fast_food,
Amen Pharma,23.771355,90.345983,pharmacy,
Amen- Alom Homeo Hall,23.770231,90.350673,pharmacy,
Amena Bostraloy,23.851525,90.414521,shop_clothes,
Amena Dental,24.261886,89.922478,hospital,
"Amena Drug House, Sookot Mansion, Dhaka",23.711898,90.403019,pharmacy,
Amena General Shop,23.790087,90.366438,shop_general,
Amena Hospital,24.266445,89.92587,hospital,
"Amena Medical center, Medical Center, Dhonia Bazar Rd, Dhaka",23.702213,90.43647,pharmacy,
Amena Pharma,23.772459,90.351789,pharmacy,
Amena Store,23.78357,90.411695,shop_general,
Amena Tailor,23.784556,90.40979,shop_tailor,
Amena Tailor,23.751839,90.38407,shop_tailor,
American Burger,23.740552,90.374987,restaurant,
"American Burger - Jashimuddin Road, Uttara",23.86122,90.397293,fast_food,
American International School / Dhaka,23.801036,90.419244,school,
"Amgram Bridge Bus Station, Dhaka - Barisal Highway",23.198829,90.06717,bus_station,
Ami Bedding Store,23.747572,90.38578,shop_bed,
Ami General Store,23.752589,90.405627,shop_convenience,
Amigos' Pizza & Restaurant,23.718347,90.40048,restaurant,
Amin Academy,23.723651,90.366084,school,
"Amin Bazar Ideal School, High school",23.786893,90.329254,school,
"Amin Bazar Police Station, Police academy",23.789616,90.324099,police,
"Amin Bazar, Bazar",24.249108,89.927104,marketplace,
Amin Cycle Store,23.71729,90.406144,shop_bicycle,
Amin Departmental Store,23.798675,90.35108,shop_department_store,
Amin Driver Petrol Pump আমিন ড্রাইভার পেট্রোল পাম্প,23.596386,89.828733,fuel,
Amin Electric Service,23.845598,90.387857,shop_electrical,
Amin Electronics,23.706183,90.42159,shop_electronics,
Amin Electronics,23.734202,90.383719,shop_electronics,
Amin Electronics,23.798211,90.352844,shop_electronics,
Amin General Store,23.750774,90.407745,shop_convenience,
Amin Homeopathy,23.811349,90.370225,pharmacy,
Amin Jewellers,23.732635,90.384384,shop_jewelry,"Mo, We-Su 09:00-22:00"
Amin Jewellers,23.751374,90.391248,shop_jewelry,
Amin Jewellers,23.814093,90.424152,shop_jewelry,
Amin Medecal Store,23.735313,90.385187,pharmacy,
Amin Medical Hall,23.553909,90.530866,pharmacy,
Amin Medicale Store,23.736176,90.385833,pharmacy,
Amin Mohammed Group,23.747024,90.37042,building_commercial,
Amin Money Changer,23.733073,90.415295,shop_money_lender,
Amin Optics,23.806801,90.368289,shop_optician,
Amin Pharma,23.715685,90.425406,pharmacy,9:00-24:00
Amin Pharma,24.438243,90.779736,pharmacy,
Amin Pharmacy,23.848048,90.258259,pharmacy,
Amin Plaza আমিন প্লাজা,23.93216,90.266427,marketplace,
Amin Shoes,23.739177,90.38797,shop_shoes,
Amin Store,23.705861,90.422279,shop_convenience,
Amin Store,23.705861,90.422224,shop_yes,
Amin Super Market আমিন সুপার মার্কেট,23.895982,90.409184,marketplace,
"Amin Super Shop LTD, Grocery store",24.09376,90.172296,shop_yes,
Amin Telecom,23.940179,90.618878,shop_electronics,
Amin Traders,23.798212,90.350208,shop_trade,
Amin Traders,23.717963,90.407054,shop_trade,
Amin homio hall,23.751479,90.406385,pharmacy,
Amin pharmacy,23.785442,90.410215,pharmacy,
Amina Jewellers,23.806773,90.369211,shop_jewelry,
Amina Tower আমিনা টাওয়ার,23.601652,89.833361,shop_mall,
Aminbag Cooperative Market Society Ltd,23.740272,90.411292,building_commercial,
"Aminbazar 400/230 kV Grid Substation, PGCB, Electrical substation",23.788151,90.316363,shop_electronics,
Aminbazar Lather House,23.786876,90.327691,shop_convenience,
Aminbazar Police Camp,23.785569,90.330214,police,
Aminbazar Tempo Station আমিনবাজার টেমপো স্টেশন,23.786289,90.330441,fuel,
Aminbazar union Health Center,23.787859,90.327993,hospital,
"Aminul Islam Model School, High school",24.027144,90.384788,school,
Aminul Store,23.511114,90.474909,shop_confectionery,
Aminur General Store,23.865568,90.258904,shop_yes,
Amir Fashion House,23.75566,90.40742,shop_clothes,
Amir Plaza আমির প্লাজা,23.908821,90.419838,shop_yes,
Amir Super Market আমির সুপার মার্কেট,23.638489,90.473563,marketplace,
Amir Tailors,23.755649,90.407419,shop_tailor,
Amir Tea Store,23.693297,90.426574,shop_tea,06:00-23:00
Amir Textiles আমির বস্ত্র,23.834516,90.258582,shop_clothes,
Amir Varieties Store;Laundry & Ironing,23.80684,90.3545,shop_variety_store;laundry,
Amir trade,23.785718,90.400744,building_commercial,24/7
Amira,23.767736,90.358276,shop_clothes,
Amish & Fuddy Buddy,23.76263,90.361988,restaurant,
Amish Proteen,23.762601,90.361859,restaurant,
Amit Enterprise অমিত এন্টারপ্রাইজ,24.079949,90.210536,shop_yes,
Amit Tailor,23.706927,90.42408,shop_tailor,
Amiz Tower Complex আমিজ টাওয়ার কমপ্লেক্স,23.636152,90.494829,shop_mall,
"Amjid Bepari Kandi Government Primary School, Shariatpur Road, Shibchar",23.399263,90.269236,school,
Amon Brothers,23.726444,90.38186,shop_yes,
Amontron,23.809753,90.363913,cafe,
Amontron Hotel And Restaurant,23.793102,90.40058,restaurant,
Amontron Tailor,23.755139,90.40933,shop_tailor,
Amore,23.774419,90.414771,shop_florist,
Amplifire Coaching Center,23.809036,90.368553,school,
Amrin Bostro Bitan,23.851661,90.417239,shop_clothes,
Amrit Restaurant,23.79335,90.404456,restaurant,
Amtoli Staff Welfare Government Primary School,23.775578,90.399202,school,
An Noor IT Source,23.806771,90.369198,shop_electronics,
Anabia Drug House,23.783019,90.372825,pharmacy,
Anada Bekary & Restaurant,23.615671,90.502274,restaurant,
"Analia Bari High School, School",24.370144,89.884855,school,
"Analiabari Government Primary School, Primary school",24.364705,89.887209,school,
Analiabari Junior Girls School,24.365532,89.889482,school,
Analysis Physiotherapy Hospital,23.772816,90.366883,clinic,
Anam Cold Store,23.550348,90.384224,shop_nutrition_supplements,
"Anam Japani Market, Auto parts market, Nawabpur Rd, Dhaka",23.714037,90.411892,marketplace,
Anam Rangs Plaza Shopping mall,23.742471,90.374309,shop_supermarket,
Anamika Beauty Corner,23.797787,90.364598,shop_hairdresser,
Anamika Dental,23.748248,90.426678,clinic,
"Anand Niketan Kindergarten, Kadamtali, Elementary school",24.417335,89.993012,school,
Anand Restaurant,23.77611,90.393268,restaurant,
Ananda Bazar,23.864196,90.400969,shop_supermarket,
Ananda Bhaban Community Center,23.736959,90.412564,restaurant,
Ananda Cinema Hall,23.756765,90.390081,cinema,
Ananda Confectionery,23.718429,90.400114,restaurant,
Ananda Departmental Store,23.73785,90.386952,shop_yes,
Ananda Departmental Store,23.737514,90.387133,shop_department_store,
Ananda Fiber Glass,23.716519,90.406808,shop_trade,"Mo, We-Su 09:00-21:00"
Ananda General Store,23.738595,90.392905,shop_yes,
Ananda Hairdresser,23.701297,90.428047,shop_hairdresser,
Ananda Hotel আনন্দ হোটেল,23.83927,90.257563,restaurant,
Ananda Ladies Tailors,23.73399,90.38491,shop_clothes,
Ananda Niketan Primary School,23.812264,90.348793,school,
Ananda Niketon European School,23.763657,90.361989,school,
Ananda Oushodh Biponon,23.748382,90.433245,pharmacy,
Ananda Restaurant - 2 আনন্দ রেস্তোরা - ২,23.61826,90.501488,restaurant,
Ananda Sweets,23.738602,90.392875,shop_confectionery,"Mo-Th,Sa-Su 10:00-22:00; Fr off"
Ananda Tailors,23.700961,90.428251,shop_tailor,
Anandapur,23.867956,90.308521,cafe,
Anando Bakery,23.775836,90.392241,shop_bakery,
Anando Beding,23.848138,90.262051,shop_bed,
Anando Medical,23.603792,89.83897,pharmacy,
Anando Refuelling Station,23.557927,90.657647,fuel,
Ananna Fashion,23.733997,90.384961,shop_clothes,
Ananna General Store & Telecom,23.851468,90.416564,shop_convenience,
Ananna Pharmacy,23.75384,90.414817,pharmacy,
Ananna Power Solution,23.754152,90.414398,shop_electronics,
Ananna Sharee House,23.741853,90.408664,shop_yes,
Ananya Restaurant,23.749973,90.386884,restaurant,
Ananya Shopping Complex,23.809173,90.413508,shop_mall,
Ananya Stationery,23.780345,90.406637,shop_stationery,
Anarpura Bus Station,23.573793,90.644008,bus_station,
Anawar and Brother Filling Station,24.138011,90.702398,fuel,
Anawor Confectonary,23.889763,90.271864,shop_confectionery,
Anchal,23.810611,90.368939,shop_clothes,
Ancholik khana,23.749558,90.365485,restaurant,
Andeli,23.934658,90.386606,shop_electronics,
"Andhar Manik Bazar, Unnamed Rd, Saliabakpur Union, Dogree",23.303064,90.347428,marketplace,
"Andher Manik Primary School, Dogree",23.302803,90.347299,school,
"Angaria Govt. Primary School, Elementary School, Vedorgonj - Shariatpur Rd, Angaria",23.192924,90.323888,school,
Angaria High School,23.191867,90.326061,school,
Angarupa Jewellers,23.814011,90.42457,shop_jewelry,
Angel Beauty Parlor & Butiques,23.756013,90.41093,shop_beauty,
Angel Beauty Parlor & Butiques,23.756077,90.410989,shop_beauty,
Angel Cycle Store,23.718225,90.407092,shop_bicycle,
Angel Dry Cleaner,23.868667,90.40416,shop_dry_cleaning,
Angel Electronics,23.755618,90.407248,shop_electronics,
Angeles Fish,23.736701,90.389841,shop_fishing,We-Mo 09:30-21:30
Anggina,23.805744,90.365006,shop_clothes,
Angina Medicine Corner,23.773806,90.353864,pharmacy,
Angle Computer,22.964757,89.815675,shop_stationery,
"Angle International, Hospital",24.006647,90.323122,hospital,
"Angry Birds Space Cake Shop, Bakery, Narinda Road, Dhaka",23.710931,90.418319,shop_pastry,
Ani Motors,23.713579,90.41307,shop_car_parts,
Anik Diagonestics Center,23.589332,89.832975,pharmacy,
Anik Drug House,23.819133,90.379957,pharmacy,
Anik Electronics,23.792496,90.374909,shop_electronics,
"Anik Foreign Furniture, Furniture store, North Jatrabari, Dhaka",23.710228,90.433196,shop_furniture,
Anik Medical,24.438065,90.779713,pharmacy,
Anik Steel Products,23.717042,90.406837,shop_hardware,"Mo, We-Su 09:00-21:00"
Anik Supar shop,23.719866,90.389898,shop_supermarket,
Anik Tower,23.77178,90.406688,building_commercial,
Anika,23.702802,90.419418,pharmacy,
Anika Motors,23.788523,90.388267,shop_trade,
Anika Senetary & Hardware,23.754865,90.407726,shop_hardware,
Anika UV Print,23.73557,90.38892,shop_gift,
Anika's,23.814065,90.424315,shop_clothes,
Anika's,23.741694,90.410014,shop_clothes,
Anikas,23.814203,90.424869,shop_clothes,
Anim Enterprise,23.697456,90.394989,shop_department_store,
Anima Homio Hall,23.738736,90.435723,clinic,
"Anima Hotel And Restaurant, Restaurant",23.931036,90.307981,restaurant,
"Animal Hospital Bhuapur, Animal hospital",24.458571,89.873152,hospital,
"Animal Hospital Madaripur, Hospital, Madaripur",23.172114,90.215434,hospital,
"Animal Hospital, Hospital",23.969136,89.829888,hospital,
Anindita Boutique,23.808876,90.373119,shop_boutique,
Anindita Boutiques,23.808884,90.373109,shop_boutique,
Anindo Pushpo,23.736714,90.39579,shop_florist,
Anirban Cadet School,23.745946,90.425541,school,
Anis Bakery আনিস বেকারি,23.786475,90.329986,shop_bakery,
Anis Stor,23.527761,90.457259,shop_yes,
Anis Store,23.784809,90.411754,shop_general,
Anisa Ladies Corner,23.84168,90.387157,shop_cosmetics,
Anisha Knitwear Ltd,24.181007,90.42628,shop_clothes,
Anisha Medicine Corner,23.860771,90.003337,pharmacy,
Anisha Medicine(আনিশা মেডিসিন কর্নার),23.828762,90.370633,pharmacy,
Anisha Store,23.783075,90.426915,shop_general,
"Anisha food zone/ CP Five Star - Anisa, Restaurant, New Doyaganj Road, Shamibagh, Dhaka",23.711797,90.423396,restaurant,
Anita Fone Media & VCD,23.755517,90.406819,shop_video,
Anita Pharmacy,23.774294,90.35003,pharmacy,
Anjali Enterprise,23.734422,90.388,shop_gift,
Anjali Gold,23.732477,90.384367,shop_jewelry,"Mo, We-Su 09:00-22:00"
Anjan's,23.790608,90.404442,shop_clothes,
Anjan's,23.805276,90.364214,shop_clothes,Mo-Sa 10:00-20:00
Anjan's,23.753512,90.376675,shop_clothes,Mo-Su 09:00-22:00
Anjan's,23.813958,90.423291,shop_clothes,
Anjan's,23.790574,90.40438,shop_yes,
Anjans,23.805092,90.363891,shop_clothes,
Anjans,23.750856,90.390113,shop_clothes,
Anjaun's,23.742031,90.410345,shop_clothes,
Anjum Traders,23.715427,90.406865,shop_trade,"Mo, We-Su 09:00-21:00"
Anjuman Jamilur Rahman Islamiya Junior High School,23.703131,90.42134,school,
Anjuman Jewelry,23.854303,90.386669,shop_jewelry,
Anjuman Mofidul,23.754181,90.408718,school,
Anjuman Mufidul Islam Balika Home (yatimkhana),23.702532,90.420609,school,
Ankur Boi Mela and Stationary,23.806957,90.369983,shop_stationery,
Anmah International School,23.862006,90.426737,school,
Anmol,23.793359,90.412883,building_commercial,
Anmol Designer Boutique,23.793365,90.412837,shop_clothes,
Annana Madicine,23.753677,90.406874,pharmacy,
Annex Area,23.72816,90.397252,university,
Annex Trade International,23.738658,90.385482,shop_electronics,
Anngina,23.805593,90.364731,shop_clothes,
Anoara Pharma(আনোয়ারা ফার্মা),23.827981,90.366018,pharmacy,
Anondo Food আনন্দ ফুড,23.619406,90.501291,restaurant,
Anondo Snacks,23.734246,90.384345,fast_food,10:00+
Anonna,23.738056,90.390802,shop_florist,
Anonna Medical Hall,24.437303,90.780756,pharmacy,
Anonna Medicine,23.924271,90.262796,pharmacy,
Anonna Medicine,23.798686,90.351099,pharmacy,
Anowar Bedding Store,23.74854,90.386142,shop_bed,
Anowar Beding Store,23.707658,90.420805,shop_clothes,
Anowar Electric & Electronics,23.753985,90.407437,shop_electronics,
Anowar Mansion,23.806483,90.368622,shop_interior_decoration,
Anowar Motors,23.713603,90.412782,shop_car_parts,
Anowar Pharma,23.813533,90.370749,pharmacy,
Anowar Pharma & General Store,23.762147,90.433472,pharmacy,
Anowara Filling Station,24.22163,89.966685,fuel,
"Anowara Hoapital And Diagnostic Centre, Hospital",24.276388,90.394241,hospital,
Anowara Medical Services,23.738709,90.380141,clinic,
Anowara Motors,23.877959,90.401511,shop_tyres,
Anower Drug House(আনোয়ার ড্রাগ হাউজ),23.818708,90.36858,pharmacy,
Anower Pharmacy,23.801709,90.378181,pharmacy,
Anower Store,23.783629,90.411248,shop_general,
Anower Store,23.784096,90.411814,shop_general,
Anowera Cosmetics And Varites Store,23.783091,90.426894,shop_jewelry,
Anoyara Pharmacy,23.77173,90.347051,pharmacy,
Ansar & VDP NHQ,23.750674,90.419423,shop_department_store,
Ansar Camp,23.791046,90.412625,parking,
Ansar VDP Bank,23.786815,89.417199,bank,
"Ansar-VDP Unnayan Bank, Bank",23.807115,90.181086,bank,
"Ansari enterprise, Building materials store, Mirerbag, Keraniganj, Epuria, Dhaka",23.67171,90.404429,shop_yes,
Antai,23.737798,90.377217,shop_massage,We-Mo 10:00-8:00
Antara Gents Parlour,23.808439,90.378993,shop_hairdresser,
Antara Steel Ind Profile Tin,23.71643,90.406823,shop_hardware,"Mo, We-Su 09:00-21:00"
Antics,23.738915,90.386865,shop_yes,
Antique Lamp & Gift Shop,23.75375,90.376509,shop_antiques,Mo-Su 09:00-22:00
Anto Medical,23.711978,90.403402,pharmacy,
Anton Pharmacy,23.844717,90.388523,pharmacy,
Antor Departmental Store,23.809849,90.364405,shop_convenience,
Antor Store,23.865779,90.258892,shop_yes,
Anudeep CNG,23.897548,90.399403,fuel,
Anurag Pharma,23.770238,90.368235,pharmacy,
Anurag Super Shop,23.770446,90.368144,building_commercial,
Anuwara General Hospital,24.047091,90.986319,hospital,
"Anwar Ahmed Siddiquee Market, Market",24.673883,89.953556,marketplace,
Anwar Bedding Store,23.750329,90.408812,shop_bed,
Anwar Coffee Shop,24.175432,90.016118,shop_coffee,
"Anwar Departmental Store, Dhaka - Mawa Hwy, Keutkhali",23.598416,90.312549,shop_yes,
"Anwar Filling Station, Gas station",23.794446,90.276971,fuel,
Anwar General Store,23.756841,90.408866,shop_department_store,
Anwar Khan Modern Medical College And Hospital,23.745202,90.382194,building_commercial,
Anwar Khan Modern Medical College Hospital,23.745296,90.381972,hospital,
Anwar Medical,24.253859,89.915503,pharmacy,
Anwar Variety store,23.885198,90.261767,shop_variety_store,
Anwar khan modern diagnostic center,23.790612,90.405255,clinic,
"Anwara Hashem Hospital, Hospital",24.386651,89.921292,hospital,
"Anwara Homeo Medical Centre, Rahman Mansion, Jatrabari Chowrasta, Dhaka",23.709755,90.434118,pharmacy,
Anwara Nursing Home(আনোয়ারা নার্সিং হোম),23.826483,90.362732,hospital,
Anwara Pharmacy,23.75405,90.407722,pharmacy,
Anwara Pharmacy,23.763283,90.3557,pharmacy,
Anwer Khan Modern Medical College Library,23.745552,90.382515,college,
Anwer Rice mill,23.707433,90.421047,shop_general,
Anzara,23.790052,90.409091,shop_clothes,
Aomio Pharmacy,23.738614,90.387963,shop_medical_supply,
Aontora computer,23.751476,90.406315,shop_computer,
Apa Dental,23.553935,90.53178,pharmacy,
Apace Filling Limited,23.946174,90.711588,fuel,
Apan Benaroshi,23.810385,90.370016,shop_clothes,
"Apargaon Hachen Dewan Government Primary School, Zajira",23.200836,90.313729,school,
Aparupa Beauty Parlor,23.603048,89.836287,shop_beauty,
"Apel Physiotherapy And Paralysis Center, Hospital",23.854746,90.26263,hospital,
Apex,23.798956,90.353446,shop_shoes,
Apex,23.558861,90.656506,shop_shoes,
Apex,23.852232,90.258684,shop_shoes,
Apex,23.799667,90.354572,shop_shoes,Mo-Sa 10:00-21:00
Apex,23.799443,90.354113,shop_shoes,Mo-Sa 10:00-21:00
Apex,23.797286,90.353532,shop_shoes,Mo-Sa 09:00-21:00
Apex,23.792453,90.374927,shop_shoes,
Apex,23.85151,90.413745,shop_shoes,
Apex,23.602954,89.834857,shop_shoes,
Apex,23.813847,90.423337,shop_shoes,
Apex,23.75126,90.391114,shop_shoes,
Apex,23.814218,90.423355,shop_shoes,
Apex,23.739288,90.388664,shop_shoes,
Apex,23.741707,90.411383,shop_yes,
Apex,23.812009,90.423682,shop_shoes,
Apex,23.818333,90.365728,shop_shoes,
Apex,23.793836,90.388246,shop_shoes,
Apex,23.806873,90.370589,shop_shoes,
Apex,23.741685,90.410539,shop_shoes,
Apex,23.791034,90.402281,shop_shoes,
Apex,23.80912,90.361339,shop_shoes,
Apex,23.762593,90.359165,shop_shoes,
Apex,23.763195,90.359096,shop_shoes,
Apex,23.776583,90.416119,shop_shoes,
Apex Footware Showroom,23.846873,90.257412,shop_shoes,
Apex Gallerie,23.73355,90.384917,shop_shoes,
Apex Gallery এপেক্স গ্যালারি,24.43454,90.781309,shop_shoes,
"Apex Medical and Diagnostic Centre, Hospital,",23.991482,90.382321,hospital,
Apex Shoe Store,23.888436,90.401459,shop_shoes,Mo-Su 10:00-22:00
Apex Shoes,23.739443,90.389045,shop_shoes,"Mo,We-Su 10:00-20:00"
Apex shoe,23.789275,90.425244,shop_shoes,
"Apex showroom, Shoe store,",23.918723,90.152703,shop_shoes,
Apex গ্যালারী আপেক্স,23.855037,90.260145,shop_shoes,
Apical Dental Surgery,23.745189,90.427563,clinic,
"Apollo Hospital Information Center, Health consultant",23.75222,90.38069,hospital,
Apollo Hospitals Information Centre,23.739891,90.427608,hospital,
Apollo Medicine And Dental Corner,23.907032,90.397897,hospital,
Apon Coffee Shop,23.752223,90.421561,cafe,
Apon Fashion Tailors,23.703887,90.422024,shop_tailor,
Apon Ghar,23.738381,90.375673,shop_clothes,"Mo, We-Su 10:00-21:00"
Apon Gift Shop আপন গিফট শপ,23.889904,90.27187,shop_gift,
Apon Homio Care,23.775292,90.358279,pharmacy,
Apon Mart,23.82179,90.428986,shop_yes,24/7
Apon MedicineCorner,23.625808,90.50708,pharmacy,
Apon Shoes,23.733566,90.384912,shop_shoes,
Apon Sweets,23.602955,89.834477,restaurant,
"Apon general hospital, Hospital",23.936331,90.28011,hospital,
Aponaloy- আপনালয়,23.834705,89.982909,shop_hardware,
Aporupa Cosmetics,23.890175,90.27185,shop_cosmetics,
Aporupa Tailors and Fabrics,23.809673,90.364375,shop_tailor,
Aporupa Wedding Photography,23.794491,90.385729,shop_photo,
Appayon Confectionary,23.642579,90.473201,restaurant,
"Appayon Hotel and Restaurant, Restaurant",23.947052,90.381895,restaurant,
Appeliano Resturant,23.918795,90.254487,restaurant,
Appetina,23.762906,90.361501,fast_food,
Apple Gadgets - Bashundhara City Shopping Complex,23.750964,90.390598,shop_electronics,Wed-Mo 10:30-20:30
Apple Services,23.81352,90.42507,shop_mobile_phone,
"Apple Tree International School, International school",23.804986,90.36427,school,
Apple tree international school(এ্যাপল ট্রি ইন্টারন্যাশনাল স্কুল),23.82426,90.36176,school,
Appollo Ispat Land Zirani Bazar Savar,24.00041,90.253966,marketplace,
Appolo,23.702826,90.419418,pharmacy,
Appolo Optics,23.799113,90.35335,shop_optician,
Appolo Pharmacy,23.70086,90.42809,pharmacy,
Apshora Bazar,23.849868,90.257688,shop_mall,
Apu Optics,23.799297,90.355066,shop_optician,Mo-Su 09:30-21:30
Apu Store অপু স্টোর,23.542016,89.622499,shop_yes,
Apurba Confectionary,23.848079,90.258497,shop_confectionery,
Apurba Electronics,23.846543,90.247031,shop_yes,
Apurba Medical,24.438376,90.779573,pharmacy,
"Apurba Mistanno Bhander, Rajendropur Bus Stop, Dhaka",23.663342,90.390309,shop_yes,
Apurba Studio,23.750738,90.387164,shop_photo_studio,
Apurbo General Store অপুর্ব জেনারেল স্টোর,23.693817,90.514051,shop_yes,
Apurbo General Store অপুর্ব জেনারেল স্টোর,23.693826,90.513867,shop_general,
Apurbo Jeans,23.734546,90.384202,shop_clothes,
Apurbo Pharma & Baby Care,23.759725,90.365875,pharmacy,
Aqib Fast Food,23.693769,90.538714,fast_food,
Aqua Deck,23.740972,90.397191,restaurant,
Aqua Java,23.836606,90.376721,restaurant,
Aqua Tower,23.780813,90.407491,building_commercial,
Aquarium,23.736671,90.389818,shop_fishing,
Aquarium,23.736712,90.389849,shop_fishing,
Aquarium Garden,23.736693,90.389833,shop_fishing,
Aquarium Zone,23.736721,90.389856,shop_fishing,
Ar Rafiyu General Hospital,23.769642,90.366676,clinic,
Ar Rahman Jewelrs,23.791897,90.388073,shop_jewelry,
Arab Anterprais,23.704938,90.426706,shop_yes,
Arabi Gift Corner,23.754651,90.407752,shop_houseware,
Arabian,23.818421,90.365729,restaurant,
Arabian Coffee House,23.884404,90.261551,shop_tea,
Arabian Fast Food,23.742315,90.382355,fast_food,
Arabian Fast Food,23.738315,90.378012,fast_food,
Arabian Khabsa Restaurant and Party Center,23.739573,90.375673,restaurant,13:00-23:00
Arabian Nights,23.763209,90.361336,restaurant,
"Arachondi Government Primary School, Zajira",23.333188,90.304677,school,
Araf Homeo Hall,23.793272,90.388125,pharmacy,
Arafat Electronics,23.776876,90.426332,shop_electronics,
Arafat Furniture,23.787435,90.376829,shop_furniture,
Arafat Genarel Store,23.817575,90.353897,shop_department_store,
Arafat General Hospital,23.724331,90.3991,hospital,
Arafat General Store,23.810148,90.366472,shop_convenience,
Arafat Glass & Thai,23.747704,90.385853,shop_hardware,
Arafat Hospital & Diagonostic Center,23.730416,90.336867,clinic,
Arafat Hotel,23.809058,90.363815,restaurant,
Arafat Paints,23.788303,90.388311,shop_hardware,
Arafat Pharmacy,23.772765,90.366779,pharmacy,
Arafat Pharmacy,23.854317,90.385704,pharmacy,
Arafat Pharmacy 1,23.854239,90.385327,pharmacy,
Arafat Pharmacy and Medicine,23.820138,90.378018,pharmacy,"10:00-14:00,17:00-24:00"
"Arafat Shoes Stor, Clothing store, Bus Stand",24.564696,90.00592,shop_clothes,
Arafat Store,23.708547,90.421861,shop_general,
Arafat Store,23.753823,90.41072,shop_convenience,
Arafat Store,23.78717,90.425794,shop_general,
Arafat Traders Rice Supply,23.845633,90.387892,shop_agrarian,
Arafat-Rifat Motors Servicing,23.938378,90.280467,shop_motorcycle,
Arafatia Model Academy And High School,24.19953,90.426136,school,
Aralia Government Primary School.,24.596837,91.057377,school,
"Aram Bhagyakul Transport Ltd., Dhaka - Mawa Hwy, Sreenagar",23.553851,90.299414,shop_ticket,
Aranya,23.793126,90.409282,shop_clothes,
Aranya Flagship Showroom,23.796928,90.408507,shop_yes,
Araz Pharma,23.747605,90.428755,pharmacy,
Archies,23.809876,90.368202,shop_gift,
Archies,23.80986,90.368037,shop_gift,
"Arfan Filling Station, Gas station",24.000756,90.343464,fuel,
"Arfan Medical Center, Pharmaceutical products wholesaler",24.194614,90.427111,shop_wholesale,
Argho Dru House,23.603091,89.836416,pharmacy,
Arial Bazar,23.489425,90.436277,marketplace,
"Arial Kha Filling Station, Shariatpur Hwy, Madaripur",23.169745,90.228402,fuel,
Arian Fashion,23.813805,90.424207,shop_clothes,
Arian Pharma,23.846612,90.24916,pharmacy,
"Aribol Traders, Gas station",23.835859,89.781716,fuel,
Aricha Belayet Hossain High School,23.836236,89.785023,school,
Aricha Belayet Hossain High School,23.836533,89.784655,school,
"Aricha Medicine Market, Pharmacy",23.835083,89.78093,pharmacy,
"Arif And Hakim Store, Gas station",24.242846,89.909768,fuel,
Arif Ato House,23.754604,90.4105,shop_car_repair,
Arif Bakery,23.793623,90.388289,shop_bakery,
Arif Crockeris,23.844658,90.387955,shop_houseware,
Arif Crockeris and Furniture,23.844676,90.387924,shop_furniture,
Arif Fruits Store,23.757198,90.411352,shop_greengrocer,
Arif General Store,23.783381,90.426211,shop_general,
Arif Hairdresser Saloon,23.783573,90.411351,shop_hairdresser,
Arif Islam,23.713735,90.384846,shop_supermarket,
Arif Khan General Store,23.735021,90.388481,shop_yes,
Arif Madical Hall,23.771851,90.346053,pharmacy,
Arif Optics,23.793049,90.388281,shop_optician,
Arif Pharma,23.766895,90.356867,pharmacy,
Arif Pharma 2,23.766803,90.356869,pharmacy,
Arif Shorno Shilpaloy,23.783953,90.410123,shop_jewelry,
Arif Store,23.706907,90.421539,shop_general,
Arif Store,23.786587,90.41241,shop_general,
Arif Store,23.786551,90.412408,shop_general,
Arif Store,23.846845,90.3877,shop_yes,
Arif Tailors,23.757313,90.407487,shop_tailor,
Arif heneral store,23.755474,90.409271,shop_convenience,
Arif store,23.989202,90.242087,shop_yes,
Arifa Engineering Workshop and Showroom,23.808575,90.361466,shop_furniture,
Arifa Sergical,23.604933,89.836618,pharmacy,
Arifa Store আরিফা স্টোর,23.835867,90.261749,restaurant,
Arifa Telecom,23.751691,90.409463,shop_mobile_phone,
Arifin Enterprise আরিফিন এন্টারপ্রাইজ,23.837544,90.25857,shop_hardware,
"Ariful Medical Hall, Pharmacy",23.80645,90.182944,pharmacy,
Arisha Hotel & Restaurant,23.750475,90.387139,restaurant,
Ariston,23.780832,90.406932,fast_food,Sa-Th 10:00-21:30
Arit Medical,23.798262,90.337113,pharmacy,
"Ariya CNG Filling Station, Gas station",23.806675,90.371435,fuel,
Arju AC Technician,23.846139,90.387985,shop_electrical,
Arju Bakery,23.756907,90.40968,shop_bakery,
Arju store,23.782549,90.407976,shop_tea,
Ark Hospital,23.868349,90.413719,hospital,
Ark eye vision,23.765536,90.358891,shop_optician,
Arko Pharma,23.809858,90.372727,pharmacy,
"Arman Energy Limited, Gas station",23.835857,89.780884,fuel,
Arman Market আরমান মার্কেট,23.858236,90.261804,marketplace,
Arman store,23.60275,90.619583,shop_variety_store,
Arman's Carpet,23.739137,90.385552,shop_carpet,
Armani Super,23.738935,90.387242,shop_optician,
Armanitola Govt. High School,23.71479,90.401993,school,
Armed Police Battalion High School,23.858465,90.405944,school,
Armed Police Battalion School & College,23.858369,90.405968,college,
Army Food Market,23.822943,90.393554,restaurant,Mo-Su 11:00-23:30
Arnab Traders,23.731063,90.4162,shop_trade,Mo-Su 09:00-21:00
Arnob Motors,23.793585,90.365438,shop_motorcycle,
